,address,formatted_address,,latitude,longitude,number_of_results,status,zipcode
0,"1000 block of Woodlawn Ave, Rockford, Illinois","1000 Woodlawn Ave, Rockford, IL 61103, USA",,42.2836498,-89.0953004,1,OK,61103
1,"16300 Nyemii Pass Rd, Valley Center, California","16300 Nyemii Pass Pl, Valley Center, CA 92082, USA",,33.2197616,-116.9729166,1,OK,92082
2,"Marcus Avenue and Northland Avenue, Saint Louis, Missouri","Marcus Ave & Northland Ave, St. Louis, MO 63113, USA",,38.6658857,-90.2494278,1,OK,63113
3,"5400 W Madison St, Chicago, Illinois","5400 W Madison St, Chicago, IL 60644, USA",,41.880518,-87.760315,1,OK,60644
4,"US 84, Santa Fe, New Mexico","US-84, Santa Fe, NM, USA",,35.688333,-105.9539502,1,OK,
5,"5307 Gulfway Drive, Groves, Texas","5307 Gulfway Dr, Port Arthur, TX 77642, USA",,29.925438,-93.9062911,1,OK,77642
6,"Jackson Place and Chatham, Grand Rapids, Michigan","Jackson Pl NW & Chatham St NW, Grand Rapids, MI 49504, USA",,42.9690057,-85.6900869,1,OK,49504
7,"315 Marcus Garvey Blvd, Brooklyn, New York","315 Marcus Garvey Blvd, Brooklyn, NY 11221, USA",,40.6866409,-73.9386227,1,OK,11221
8,"2040 W. Boone Ave, Spokane, Washington","2040 W Boone Ave, Spokane, WA 99201, USA",,47.6683116,-117.4430307,1,OK,99201
9,"1500 block of Cole Street, Baltimore, Maryland","1500 Cole St, Baltimore, MD 21223, USA",,39.282415,-76.6406079,1,OK,21223
10,"401 Dudley Street, Syracuse, New York","401 Dudley St, Syracuse, NY 13204, USA",,43.0346552,-76.1698376,1,OK,13204
11,"Fort Worth St, Baytown, Texas","Fort Worth St, Baytown, TX 77520, USA",,29.7469583,-94.9590895,1,OK,77520
12,"1500 block of Southwest Legacy Cove Circle, Martin (county), Florida","1500 SE Legacy Cove Cir, Stuart, FL 34997, USA",,27.1263578,-80.2329809,1,OK,34997
13,"1800 block of South Reynolds, Alice, Texas","1800 S Reynolds St, Alice, TX 78332, USA",,27.7328714,-98.0727522,1,OK,78332
14,"Hansford Street, Charleston, West Virginia","Hansford St, Charleston, WV, USA",,38.3473165,-81.6190922,1,OK,
15,"600 block of Reckord Rd, Fallston, Maryland","600 Reckord Rd, Fallston, MD 21047, USA",,39.4992985,-76.4146838,1,OK,21047
16,"3400 E Sky Harbor Blvd, Phoenix, Arizona","3400 E Sky Harbor Blvd, Phoenix, AZ 85034, USA",,33.43602,-111.997863,1,OK,85034
17,"800 block of Citadel Drive E., Colorado Springs, Colorado","800 Citadel Dr E, Colorado Springs, CO 80909, USA",,38.8439399,-104.7588162,1,OK,80909
18,"Train Avenue, Cleveland, Ohio","Train Ave, Cleveland, OH, USA",,41.4746213,-81.709008,1,OK,
19,"5100 block of Lakeview Dr, Granite City, Illinois","5100 Lakeview Dr, Granite City, IL 62040, USA",,38.7502897,-90.0816007,1,OK,62040
20,"700 block of Poplar St, Lancaster, Pennsylvania","700 Poplar St, Lancaster, PA 17603, USA",,40.0309526,-76.3143876,1,OK,17603
21,"Ardale Drive, High Point, North Carolina","Ardale Dr, High Point, NC 27260, USA",,35.9379909,-79.9876349,1,OK,27260
22,"S. Sixth Street and Washington Street, Hartsville, South Carolina","736 S 6th St, Hartsville, SC 29550, USA",,34.364702,-80.07202,1,OK,29550
23,"Webb Street and Steward Avenue, Jackson, Michigan","Steward Ave & Webb St, Jackson, MI 49202, USA",,42.2557798,-84.4163466,1,OK,49202
24,"10950 block of Westbrae Parkway, Houston, Texas","10950 Westbrae Pkwy, Houston, TX 77031, USA",,29.660774,-95.534673,1,OK,77031
25,"100 Block of Gem Ave, Bridgeport, Connecticut","100 Gem Ave, Bridgeport, CT 06606, USA",,41.1949957,-73.196752,1,OK,6606
26,"1500 block of Mckean Avenue, Baltimore, Maryland","1500 McKean Ave, Baltimore, MD 21217, USA",,39.3053239,-76.6470617,1,OK,21217
27,"2900 block of Timberbrook Drive, Charlotte, North Carolina","2900 Timberbrook Dr, Charlotte, NC 28208, USA",,35.248026,-80.909007,1,OK,28208
28,"1411 Howland Blvd. , Deltona, Florida","1411 Howland Blvd, Deltona, FL 32738, USA",,28.9034992,-81.1734794,1,OK,32738
29,"3200 block of Blackstone Avenue, Rockford, Illinois","3200 Blackstone Ave, Rockford, IL 61101, USA",,42.2929722,-89.1071792,1,OK,61101
30,"900 N. Starcrest Drive, Salt Lake City, Utah","900 N & Star Crest Dr W, Salt Lake City, UT 84116, USA",,40.7890319,-111.9435895,1,OK,84116
31,"Parks Highway and Seward Meridian Parkway, Wasilla, Alaska","1301 Seward Meridian Rd Suite G, Wasilla, AK 99654, USA",,61.5687257,-149.3590532,1,OK,99654
32,"Dixwell Avenue and Ivy Street, New Haven, Connecticut","Ivy St & Dixwell Ave, New Haven, CT 06511, USA",,41.330537,-72.9351667,1,OK,6511
33,"600 block of E 4th St, Duluth, Minnesota","600 E 4th St, Duluth, MN 55805, USA",,46.7953565,-92.0950777,1,OK,55805
34,"225 Mohawk Trail, Wilmington, North Carolina","225 Mohawk Trail, Wilmington, NC 28409, USA",,34.1550917,-77.8757228,1,OK,28409
35,"Campus Drive, Orangeburg, South Carolina","Campus Dr, Orangeburg, SC 29115, USA",,33.5034115,-80.8412218,1,OK,29115
36,"2800 block of Bronte Ave, Nashville, Tennessee","2800 Bronte Ave, Nashville, TN 37216, USA",,36.1993647,-86.7368965,1,OK,37216
37,"7341 Northwest 35th Street, Fort Lauderdale (Davie), Florida","7341 NW 35th St, Hollywood, FL 33024, USA",,26.0406719,-80.2357002,1,OK,33024
38,"300 block of South Peach Avenue, Marshfield, Wisconsin","300 S Peach Ave, Marshfield, WI 54449, USA",,44.6620041,-90.1674018,1,OK,54449
39,"800 block of South Wilbur Avenue, Syracuse, New York","800 S Wilbur Ave, Syracuse, NY 13204, USA",,43.040821,-76.1777399,1,OK,13204
40,"Amherst and Ashland Streets, Manchester, New Hampshire","Ashland St & Amherst St, Manchester, NH 03104, USA",,42.9918394,-71.448595,1,OK,3104
41,"Osprey Dr, Portsmouth, New Hampshire","Osprey Dr, Portsmouth, NH 03801, USA",,43.0889862,-70.7805531,1,OK,3801
42,"Hayes Ave, Fremont, Ohio","Hayes Ave, Fremont, OH 43420, USA",,41.3421167,-83.1352083,1,OK,43420
43,"North Claiborne Avenue and Canal Street, New Orleans, Louisiana","Canal St & N Claiborne Ave, New Orleans, LA 70112, USA",,29.9590771,-90.0775664,1,OK,70112
44,"300 block of Folk St, Easton, Pennsylvania","300 Folk St, Easton, PA 18042, USA",,40.6816467,-75.2083993,1,OK,18042
45,"4600 block of Dietrich Road, San Antonio, Texas","4600 Dietrich Rd, San Antonio, TX 78219, USA",,29.4414133,-98.4027578,1,OK,78219
46,"Rittiman Rd and I-35, San Antonio, Texas","6410 N Interstate 35, San Antonio, TX 78218, USA",,29.4886191,-98.4007478,1,OK,78218
47,"McClellan Street near 6th Street, Philadelphia, Pennsylvania","219 McClellan St, Philadelphia, PA 19148, USA",,39.925289,-75.150361,2,OK,19148
48,"Slocumb St and Elm St, Goldsboro, North Carolina","E Elm St & S Slocumb St, Goldsboro, NC 27530, USA",,35.3746574,-77.9900563,2,OK,27530
49,"850 Oak St SW, Atlanta, Georgia","850 Oak St SW, Atlanta, GA 30310, USA",,33.7390938,-84.4147756,1,OK,30310
50,"2000 block of West 13th Street, Jacksonville, Florida","2000 W 13th St, Jacksonville, FL 32209, USA",,30.3512734,-81.6915012,1,OK,32209
51,"Ingram Street and Linn Street, Sikeston, Missouri","Linn St & N Ingram Rd, Sikeston, MO 63801, USA",,36.8825287,-89.5691362,1,OK,63801
52,"1800 block of Remount Road, North Charleston, South Carolina","1800 Remount Rd, North Charleston, SC 29406, USA",,32.9001895,-80.0088344,1,OK,29406
53,"Jefferson Avenue, Brooklyn, New York","Jefferson Ave, Brooklyn, NY, USA",,40.6864888,-73.9221645,1,OK,
54,"700 Center Street, Oakland, California","700 Center St, Oakland, CA 94607, USA",,37.8053751,-122.2949164,1,OK,94607
55,"820 W McNichols Rd, Detroit, Michigan","820 W McNichols Rd, Highland Park, MI 48203, USA",,42.4176545,-83.112917,1,OK,48203
56,"1100 block of E Madison St, South Bend, Indiana","1100 E Madison St, South Bend, IN 46617, USA",,41.6805382,-86.2351917,1,OK,46617
57,"Paseo Del Norte and Unser Street, Albuquerque, New Mexico","Paseo Del Norte NW & Unser Blvd NW, Albuquerque, NM 87114, USA",,35.1839368,-106.7201373,1,OK,87114
58,"Riviera and Edge Cliff drive, San Diego, California","Edge Cliff Dr & Riviera Dr, San Diego, CA 92109, USA",,32.780655,-117.238197,1,OK,92109
59,"1900 W. Foster Ave., Chicago, Illinois","1900 W Foster Ave, Chicago, IL 60640, USA",,41.9763582,-87.6766492,1,OK,60640
60,"15000 block of South Jones Court, Oak Forest, Illinois","15000 Jones Ct, Oak Forest, IL 60452, USA",,41.618894,-87.7389047,1,OK,60452
61,"Tabitha Ct, Cottonwood, California","Tabitha Ct, California 96022, USA",,40.3407772,-122.3480227,1,OK,96022
62,"Piedmont and Auburn Avenue, Atlanta, Georgia","Piedmont Ave NE & Auburn Ave NE, Atlanta, GA 30305, USA",,33.7555435,-84.3822529,1,OK,30305
63,"3200 block of Dr Martin Luther King Dr, Saint Louis, Missouri","3200 Dr Martin Luther King Dr, St. Louis, MO 63106, USA",,38.6437037,-90.2240195,1,OK,63106
64,"700 block of Riddle Road, Cincinnati, Ohio","700 Riddle Rd, Cincinnati, OH 45220, USA",,39.1377918,-84.5300008,1,OK,45220
65,"200 block of West Fayette Street, Baltimore, Maryland","200 W Fayette St, Baltimore, MD 21201, USA",,39.2906959,-76.618129,1,OK,21201
66,"200 Generals Lane, Jonesville, Virginia","200 General Ln, Pennington Gap, VA 24277, USA",,36.7310425,-83.0888057,1,OK,24277
67,"2400 block of Fields South Drive, Champaign, Illinois","2400 Fields S Dr, Champaign, IL 61822, USA",,40.0840773,-88.3080504,1,OK,61822
68,"3800 block of Harlem Ave, Baltimore, Maryland","3800 Harlem Ave, Baltimore, MD 21229, USA",,39.2952908,-76.6803394,1,OK,21229
69,"Santa Ana Street, South Gate, California","Santa Ana St, South Gate, CA, USA",,33.9625085,-118.2012713,1,OK,
70,"2900 block of Durango, Temple, Texas","2900 Durango Dr, Temple, TX 76504, USA",,31.1022144,-97.3740394,1,OK,76504
71,"9200 block of Sunnyside Street, Oakland, California","9200 Sunnyside St, Oakland, CA 94603, USA",,37.7522285,-122.1661171,1,OK,94603
72,"1300 W Indian Trail, Aurora, Illinois","1300 W Indian Trail, Aurora, IL 60506, USA",,41.7807738,-88.3463597,1,OK,60506
73,"3500 block of West Huron Street, Chicago, Illinois","3500 W Huron St, Chicago, IL 60624, USA",,41.893939,-87.7139849,1,OK,60624
74,"967 E 99th St, Brooklyn, New York","967 E 99th St, Brooklyn, NY 11236, USA",,40.643596,-73.897446,1,OK,11236
75,"Brookside Rd and W 66th Terrace, Kansas City, Missouri","Brookside Rd & W 66th Terrace, Kansas City, MO 64113, USA",,39.0081917,-94.5927076,1,OK,64113
76,"76th and Grantosa, Milwaukee, Wisconsin","N 76th St & W Grantosa Dr, Milwaukee, WI 53218, USA",,43.1103436,-88.0059718,1,OK,53218
77,"State Road 7, Lauderdale Lakes, Florida","FL-7, Lauderdale Lakes, FL, USA",,26.1665732,-80.2032309,2,OK,
78,"5900 Block of Warrington Ave, Philadelphia, Pennsylvania","5900 Warrington Ave, Philadelphia, PA 19143, USA",,39.9366953,-75.2324436,1,OK,19143
79,"500 Wood Street, Brooklyn Park, Maryland","500 Wood St, Baltimore, MD 21225, USA",,39.221499,-76.603185,1,OK,21225
80,"2831 Boardwalk, Atlantic City, New Jersey","2831 Boardwalk, Atlantic City, NJ 08401, USA",,39.3523692,-74.4445618,1,OK,8401
81,"6300 block of Allentown Rd, Temple Hills (Camp Springs), Maryland","6300 Allentown Rd, Temple Hills, MD 20748, USA",,38.803318,-76.907033,1,OK,20748
82,"9900 Jeanette Road, Jacksonville, Florida","9900 Jeanette Rd, Jacksonville, FL 32246, USA",,30.3158629,-81.5513091,1,OK,32246
83,"1800 block of Myrtle Drive, Atlanta, Georgia","1800 Myrtle Dr SW, Atlanta, GA 30311, USA",,33.7060188,-84.4547389,1,OK,30311
84,"W Louisiana Ave and S Inca St, Denver, Colorado","W Louisiana Ave & S Inca St, Denver, CO 80223, USA",,39.6930768,-104.9980202,1,OK,80223
85,"9700 block of Hanover Grove Avenue, Las Vegas, Nevada","9700 W Hanover Grove Ave, Las Vegas, NV 89148, USA",,36.0724447,-115.3059059,1,OK,89148
86,"Castle and Whittier, Wichita, Kansas","S Whittier St & E Castle Dr, Wichita, KS 67207, USA",,37.6710126,-97.2523608,1,OK,67207
87,"4500 Silver Star Rd, Orlando, Florida","4500 Silver Star Rd, Orlando, FL 32808, USA",,28.5776417,-81.4399587,1,OK,32808
88,"510 Washington St, Boston, Massachusetts","510 Washington St, Boston, MA 02124, USA",,42.2938823,-71.071412,1,OK,2124
89,"8040 Plantation Rd, Roanoke, Virginia","8040 Plantation Rd, Hollins, VA 24019, USA",,37.3582663,-79.9572276,1,OK,24019
90,"July Drive, Lowmansville, Kentucky","July Dr, Kentucky 41232, USA",,37.9209213,-82.7320047,1,OK,41232
91,"Jackson St, Lynn, Massachusetts","Jackson St, Lynn, MA 01902, USA",,42.4754153,-70.9336911,1,OK,1902
92,"Intervale Street, Quincy, Massachusetts","Intervale St, Quincy, MA 02169, USA",,42.2378076,-71.0120772,1,OK,2169
93,"Curry Lane, Florence, South Carolina","Curry Ln, Florence, SC 29501, USA",,34.2011917,-79.7867879,1,OK,29501
94,"4000 block of West 18th Street, Chicago, Illinois","4000 W 18th St, Chicago, IL 60623, USA",,41.8570426,-87.7248956,1,OK,60623
95,"4000 block of Indian Creek Road, Elkview, West Virginia","4000 Indian Creek Rd, Elkview, WV 25071, USA",,38.4029712,-81.507102,1,OK,25071
96,"Calle de la Plata, Sparks (Spanish Springs), Nevada","Calle De La Plata, Spanish Springs, NV 89441, USA",,39.6695115,-119.6729401,1,OK,89441
97,"2900 block of Thomas Street, Fort Myers, Florida","2900 Thomas St, Fort Myers, FL 33916, USA",,26.6373099,-81.8545731,1,OK,33916
98,"I-55 and Loughborough Ave, Saint Louis, Missouri","1042-A Loughborough Ave, St. Louis, MO 63111, USA",,38.557557,-90.262016,1,OK,63111
99,"3200 block of Merced Place, Oxnard, California","3200 Merced Pl, Oxnard, CA 93033, USA",,34.1712268,-119.1481274,1,OK,93033
100,"25 Union Avenue, Port Jefferson Station, New York","25 Union St, Port Jefferson Station, NY 11776, USA",,40.9329391,-73.0504662,1,OK,11776
101,"2300 block of Fairbanks Avenue, Norfolk, Virginia","2300 Fairbanks Ave, Norfolk, VA 23513, USA",,36.8677102,-76.2393801,1,OK,23513
102,"66100 block of 3rd St, Desert Hot Springs, California","66100 3rd St, Desert Hot Springs, CA 92240, USA",,33.964393,-116.5084271,1,OK,92240
103,"721 Twin Oaks Road, Thomson, Georgia","721 Twin Oaks Rd, Thomson, GA 30824, USA",,33.471666,-82.5230441,1,OK,30824
104,"North Payne Street and Wythe Street, Alexandria, Virginia","N Payne St & Wythe St, Alexandria, VA 22314, USA",,38.8127196,-77.0520675,1,OK,22314
105,"2400 block of Walker Chapel Rd, Fultondale, Alabama","2400 Walker Chapel Rd, Fultondale, AL 35068, USA",,33.60487,-86.817872,1,OK,35068
106,"15th St and Mulberry st, Lincoln, Nebraska","W Mulberry St, Lincoln, NE 68522, USA",,40.7934018,-96.7873671,1,OK,68522
107,"Chambers and South Street, Newburgh, New York","South St & Chambers St, Newburgh, NY 12550, USA",,41.506899,-74.011525,2,OK,12550
108,"Loop Road and Matilton Cutoff Road, Hoopa, California","5 Loop Rd, Hoopa, CA 95546, USA",,41.0495704,-123.6749815,1,OK,95546
109,"4050 SW Lombard Ave, Beaverton, Oregon","4050 SW Lombard Ave, Beaverton, OR 97005, USA",,45.4907924,-122.8019274,1,OK,97005
110,"Walker Avenue near Northwest 9th Street, Oklahoma City, Oklahoma","1099N N Walker Ave, Oklahoma City, OK 73102, USA",,35.4778325,-97.5216705,1,OK,73102
111,"Castle Hill Ave. near Seward Ave., Bronx, New York","Seward Ave, The Bronx, NY 10473, USA",,40.8211202,-73.8485165,1,OK,10473
112,"1600 block of East 70th Street, Chicago, Illinois","1600 E 70th St, Chicago, IL 60649, USA",,41.7678655,-87.5859794,1,OK,60649
113,"327 Park Street, Salinas, California","327 Park St, Salinas, CA 93901, USA",,36.677334,-121.6644255,1,OK,93901
114,"Northern Avenue, Augusta, Maine","Northern Ave, Augusta, ME 04330, USA",,44.3297803,-69.7766438,1,OK,4330
115," I-526 and West Montague Avenue, North Charleston, South Carolina","1943 Savannah Hwy, Charleston, SC 29407, USA",,32.7886255,-80.0276284,1,OK,29407
116,"2100 block of North Angus Street, Fresno, California","2100 N Angus St, Fresno, CA 93703, USA",,36.769825,-119.7766317,1,OK,93703
117,"Bedford and Gates, Brooklyn, New York","Bedford Ave & Gates Ave, Brooklyn, NY 11216, USA",,40.6857863,-73.954386,2,OK,11216
118,"700 block of E St, Schuyler, Nebraska","700 E St, Schuyler, NE 68661, USA",,41.443848,-97.0531875,1,OK,68661
119,"2491 Winchester Road, Memphis, Tennessee","2491 Winchester Rd, Memphis, TN 38116, USA",,35.0469098,-89.9816526,1,OK,38116
120,"1600 block of North Kildare, Chicago, Illinois","1600 N Kildare Ave, Chicago, IL 60639, USA",,41.9098339,-87.7336451,1,OK,60639
121,"14000 block of Wales Street, New Orleans, Louisiana","14000 Wales St, New Orleans, LA 70128, USA",,30.067086,-89.950573,1,OK,70128
122,"Washington Street Extension, Middlebury, Vermont","Washington St Ext, Middlebury, VT 05753, USA",,44.0214919,-73.153491,1,OK,5753
123,"Lagrange and Sherman, Toledo, Ohio","Lagrange St & Sherman St, Toledo, OH 43608, USA",,41.667716,-83.534798,1,OK,43608
124,"1210 Columbia Street, Waterloo, Iowa","1210 Columbia St, Waterloo, IA 50703, USA",,42.5188076,-92.3424457,1,OK,50703
125,"Avalon Drive, Lexington, North Carolina","Avalon Dr, Tyro, NC 27295, USA",,35.8378842,-80.3313143,1,OK,27295
126,"Sherman Street, Westbury, New York","Sherman St, Westbury, NY 11590, USA",,40.7620292,-73.5703923,1,OK,11590
127,"11111 Harlem Road, Richmond, Texas","11111 Harlem Rd, Richmond, TX 77406, USA",,29.6534551,-95.7163645,1,OK,77406
128,"1300 North 26th Street, Milwaukee, Wisconsin","1300 N 26th St, Milwaukee, WI 53205, USA",,43.0472703,-87.9462741,1,OK,53205
129,"Bragg Boulevard, Fayetteville, North Carolina","Bragg Blvd, Fayetteville, NC, USA",,35.1014302,-78.9581319,1,OK,
130,"East 30th Street and Superior Avenue, Cleveland, Ohio","E 30th St & Superior Ave, Cleveland, OH 44114, USA",,41.5104878,-81.6707004,1,OK,44114
131,"700 Woodlow Street, Pittsburgh, Pennsylvania","700 Woodlow St, Pittsburgh, PA 15205, USA",,40.4470434,-80.051047,1,OK,15205
132,"800 block of Staples Avenue, Kalamazoo, Michigan","800 Staples Ave, Kalamazoo, MI 49007, USA",,42.2983838,-85.5971535,1,OK,49007
133,"N. Chicago Ave., Portland, Oregon","N Chicago Ave, Portland, OR 97203, USA",,45.5927358,-122.7537361,1,OK,97203
134," 8200 South Kedzie Avenue., Chicago, Illinois","8200 S Kedzie Ave, Chicago, IL 60652, USA",,41.7440466,-87.7024656,1,OK,60652
135,"400 block of 55th Street, Fairfield, Alabama","400 55th St, Fairfield, AL 35064, USA",,33.4831896,-86.9128656,1,OK,35064
136,"3800 block of W. Fairmount Ave., Milwaukee, Wisconsin","3800 W Fairmount Ave, Milwaukee, WI 53209, USA",,43.1082663,-87.9602171,1,OK,53209
137,"3000 block of Viking Drive, Nashville, Tennessee","Nashville, TN, USA",,36.1626638,-86.7816016,1,OK,
138,"Michigan Avenue and Monroe Street, Chicago, Illinois","Michigan Avenue & East Monroe Street, Chicago, IL 60603, USA",,41.880824,-87.6244426,1,OK,60603
139,"611 4th Ave, Huntington, West Virginia","611 4th Ave, Huntington, WV 25701, USA",,38.419622,-82.448406,1,OK,25701
140,"281 Tacoma Street, Worcester, Massachusetts","281 Tacoma St, Worcester, MA 01605, USA",,42.3079726,-71.775495,1,OK,1605
141,"1410 University Blvd, Tuscaloosa, Alabama","1410 University Blvd, Tuscaloosa, AL 35401, USA",,33.2116782,-87.5559244,1,OK,35401
142,"Girard Street, Delano, California","Girard St, Delano, CA 93215, USA",,35.7846746,-119.2498244,1,OK,93215
143,"2733 169th Street, Hammond (Hessville), Indiana","2733 169th St, Hammond, IN 46323, USA",,41.588618,-87.4626608,1,OK,46323
144,"776 N Terminal Dr, Salt Lake City, Utah","776 N Terminal Dr, Salt Lake City, UT 84122, USA",,40.7866133,-111.9818541,1,OK,84122
145,"El Potrero Rd, Chimayo, New Mexico","El Potrero Rd, Chimayo, NM 87522, USA",,35.9918057,-105.9393287,1,OK,87522
146,"19200 block of SW Cipole Rd, Sherwood, Oregon","19200 SW Cipole Rd, Sherwood, OR 97140, USA",,45.380709,-122.8149771,1,OK,97140
147,"2700 block of Burrell Street, Birmingham, Alabama","2700 Burrell St, Birmingham, AL 35224, USA",,33.5150903,-86.9124683,1,OK,35224
148,"Ashley and Krupp streets, Buffalo, New York","Ashley St & Krupp St, Buffalo, NY 14212, USA",,42.8937637,-78.823646,1,OK,14212
149,"North Tibbs Avenue and West Washington Street, Indianapolis, Indiana","N Tibbs Ave & W Washington St, Indianapolis, IN 46222, USA",,39.7646996,-86.2118243,1,OK,46222
150,"S. H St. and White Lane, Bakersfield, California","S H St & White Ln, Bakersfield, CA 93304, USA",,35.317585,-119.0213168,1,OK,93304
151,"2300 block of West Wiswall Street, Peoria, Illinois","2300 W Wiswall St, Peoria, IL 61605, USA",,40.680218,-89.629049,1,OK,61605
152,"2600 block of 18th Street, Southeast, Washington, District of Columbia","2600 18th St SE, Washington, DC 20020, USA",,38.8551579,-76.979022,1,OK,20020
153,"12314 Pacific Highway SW, Lakewood, Washington","12314 Pacific Hwy SW, Lakewood, WA 98499, USA",,47.1456593,-122.5114208,1,OK,98499
154,"9th Court North and Center Street, Birmingham, Alabama","Center St & 9th Ct N, Birmingham, AL 35204, USA",,33.5167473,-86.8361886,1,OK,35204
155,"1100 block of Burns Ave, Saint Paul, Minnesota","1100 Burns Ave, St Paul, MN 55106, USA",,44.9487084,-93.05416,1,OK,55106
156,"LeBlanc Ct, Louisville, Kentucky","Le Blanc Ct, Louisville, KY 40206, USA",,38.2603991,-85.6992488,1,OK,40206
157,"14220 Northwest 157th Place, Alachua, Florida","14220 NW 157th Pl, Alachua, FL 32615, USA",,29.7993191,-82.4973878,1,OK,32615
158,"4300 block of Central Ave., Charlotte, North Carolina","4300 Central Ave, Charlotte, NC 28205, USA",,35.2143746,-80.7728975,1,OK,28205
159,"7250 S. Tucson Blvd., Tucson, Arizona","7250 S Tucson Blvd, Tucson, AZ 85756, USA",,32.1202544,-110.937308,1,OK,85756
160,"818 Roanoke Ave, Elizabeth City, North Carolina","818 Roanoke Ave, Elizabeth City, NC 27909, USA",,36.2866956,-76.2310514,1,OK,27909
161,"95th St and Jackson Mill Rd, Corona (Queens), New York","Jackson Mill Rd & 95th St, Queens, NY 11369, USA",,40.7593588,-73.87356,1,OK,11369
162,"900 block of Maine Ave, Long Beach, California","900 Maine Ave, Long Beach, CA 90813, USA",,33.77787,-118.2004786,1,OK,90813
163,"Kirby Ave and Elbright St, Muncie, Indiana","S Ebright St & E Kirby Ave, Muncie, IN 47302, USA",,40.188474,-85.3760555,1,OK,47302
164,"29083 Mission Blvd, Hayward, California","29083 Mission Blvd, Hayward, CA 94544, USA",,37.6332615,-122.0528931,1,OK,94544
165,"5200 block of E Calberts Ln, Fair Grove, Missouri","E Calberts Ln, Jackson No. 1 Township, MO 65648, USA",,37.3353277,-93.1781851,1,OK,65648
166,"Dacy Lane, Buda, Texas","Dacy Ln, Texas, USA",,30.0308533,-97.8290035,1,OK,
167,"3271 E. 100 N., Rigby, Idaho","3271 E 100 N, Rigby, ID 83442, USA",,43.641759,-112.0494459,1,OK,83442
168,"1100 block of 28th Street, Oakland, California","1100 28th St, Oakland, CA 94608, USA",,37.8202285,-122.2812724,1,OK,94608
169,"1900 block of Randleman Road, Greensboro, North Carolina","1900 Randleman Rd, Greensboro, NC 27406, USA",,36.0486367,-79.7987442,1,OK,27406
170,"6700 block of South Jeffery Ave, Chicago, Illinois","6700 S Jeffery Ave, Chicago, IL 60649, USA",,41.7731486,-87.5768513,1,OK,60649
171,"12th and Chestnut, Chester, Pennsylvania","E 12th St & Chestnut St, Chester, PA 19013, USA",,39.8587874,-75.3552939,1,OK,19013
172,"Chancery Lane, Orange County, Florida","Chancery Ln, Sky Lake, FL 32809, USA",,28.4603596,-81.3962676,1,OK,32809
173,"100 block of Southwest Fourth Street, Battle Ground, Washington","100 SW 4th St, Battle Ground, WA 98604, USA",,45.7781964,-122.5385431,1,OK,98604
174,"Sunny Ln, Grifton, North Carolina","Sunny Ln, Contentnea Neck, NC, USA",,35.3904962,-77.5289858,1,OK,
175,"Northside Drive , Jackson, Mississippi","E Northside Dr, Jackson, MS, USA",,32.3557671,-90.1476098,2,OK,
176,"13th St and Hawthorne Ave, Apopka, Florida","S Hawthorne Ave, Apopka, FL 32703, USA",,28.6632944,-81.5176824,1,OK,32703
177,"Boxwood Drive, Hopkinsville, Kentucky","Boxwood Dr, Hopkinsville, KY 42240, USA",,36.8783019,-87.5026444,1,OK,42240
178,"S Bond St and Beacon Ave S, Seattle, Washington","S Bond St & Beacon Ave S, Seattle, WA 98118, USA",,47.5142968,-122.2737662,1,OK,98118
179,"Sacramento Street, Vallejo, California","Sacramento St, Vallejo, CA 94590, USA",,38.1105449,-122.2580816,1,OK,94590
180,"5300 block of West Grand, Chicago, Illinois","5300 W Grand Ave, Chicago, IL 60639, USA",,41.917679,-87.7586,1,OK,60639
181,"2605 Hwy 35, Emerson, Nebraska","2605 NE-35, Emerson, NE 68733, USA",,42.2932975,-96.7102378,1,OK,68733
182,"Creston Avenue and East 183rd Street, Bronx, New York","E 183rd St & Creston Ave, The Bronx, NY 10468, USA",,40.8577727,-73.9009323,1,OK,10468
183,"GA 17, Martin, Georgia","GA-17, Martin, GA, USA",,34.4939787,-83.1811895,1,OK,
184,"1426 Nolan Street, Palm Bay, Florida","1426 Nolan St NE, Palm Bay, FL 32907, USA",,28.0024754,-80.6300683,1,OK,32907
185,"Long Pine Drive, Tobyhanna (Coolbaugh Township), Pennsylvania","Long Pine Dr, Coolbaugh Township, PA 18466, USA",,41.2033728,-75.3757634,1,OK,18466
186,"Flat Shoals Road, Dekalb County, Georgia","Flat Shoals Rd, Georgia, USA",,33.7139348,-84.3048138,1,OK,
187,"3900 block of N Florissant Ave, Saint Louis, Missouri","3900 N Florissant Ave, St. Louis, MO 63107, USA",,38.6615773,-90.2060931,1,OK,63107
188,"2900 block of Leeway, Columbia, Missouri","2900 Leeway Dr, Columbia, MO 65202, USA",,38.9864781,-92.2952917,1,OK,65202
189,"452 Main Street, West Yarmouth, Massachusetts","452 Main St, West Yarmouth, MA 02673, USA",,41.651381,-70.2401545,1,OK,2673
190,"980 Massachusetts Avenue, Boston, Massachusetts","980 Massachusetts Ave, Boston, MA 02118, USA",,42.3287666,-71.06793,1,OK,2118
191,"Greenville Blvd, Greenville, North Carolina","Greenville Blvd SE, Greenville, NC, USA",,35.5898787,-77.3583794,1,OK,
192,"6500 block of South Cottage Grove Avenue, Chicago, Illinois","6500 S Cottage Grove Ave, Chicago, IL 60637, USA",,41.7766343,-87.6061021,1,OK,60637
193,"1625 Dr D B Todd Jr Blvd, Nashville, Tennessee","1625 Dr DB Todd Jr Blvd, Nashville, TN 37208, USA",,36.1755661,-86.810187,1,OK,37208
194,"112th St S and Pacific Ave S, Tacoma (Parkland), Washington","112th St S & Pacific Ave S, Parkland, WA 98444, USA",,47.1554423,-122.434258,1,OK,98444
195,"1035 Lisbon Street, Lewiston, Maine","1035 Lisbon St, Lewiston, ME 04240, USA",,44.0801504,-70.1959109,1,OK,4240
196,"East 29th Street, Brooklyn, New York","E 29th St, Brooklyn, NY, USA",,40.6154989,-73.9457671,1,OK,
197,"600 block of Hightower Road, Peoria, Illinois","600 N Hightower St, Peoria, IL 61605, USA",,40.6944739,-89.5997551,1,OK,61605
198,"2200 block of Walton Ave, Cleveland, Ohio","2200 Walton Ave, Cleveland, OH 44113, USA",,41.4712335,-81.6988602,1,OK,44113
199,"1376 N Nova Rd, Daytona Beach, Florida","1376 N Nova Rd, Holly Hill, FL 32117, USA",,29.2314651,-81.0539642,1,OK,32117
200,"Treat Highway between Yankee and Mulberry Roads, Lenawee County, Michigan","2461 Treat St, Adrian, MI 49221, USA",,41.8829256,-84.0171554,1,OK,49221
201,"1000 International Dr, Corpus Christi, Texas","Hayden W. Head Terminal, 1000 International Dr, Corpus Christi, TX 78406, USA",,27.7744771,-97.5024748,1,OK,78406
202,"5106 Dorchester Road, Charleston, South Carolina","5106 Dorchester Rd, North Charleston, SC 29418, USA",,32.856568,-80.036056,1,OK,29418
203,"3200 E Airfield Dr, Dallas (Dfw Airport), Texas","3200 E Airfield Dr, DFW Airport, TX 75261, USA",,32.8748014,-97.0144434,1,OK,75261
204,"3600 block of Metting Road, Wilmington, North Carolina","3600 Metting Rd, Wilmington, NC 28403, USA",,34.2364092,-77.9005767,1,OK,28403
205,"Cottonwood Plaza and Cottonwood Lane, Omaha, Nebraska","Cottonwood Ln & Cottonwood Plaza, Omaha, NE 68164, USA",,41.2860746,-96.0830035,1,OK,68164
206,"1200 N. Monroe , Amarillo, Texas","1200 N Monroe St, Amarillo, TX 79107, USA",,35.2264739,-101.8403239,1,OK,79107
207,"1200 block of Westminster St, Saint Paul, Minnesota","1200 Westminster St, St Paul, MN 55130, USA",,44.9772643,-93.0862258,1,OK,55130
208,"Elysian Fields Ave and St. Claude Ave, New Orleans, Louisiana","Elysian Fields Ave & St Claude Ave, New Orleans, LA 70116, USA",,29.9686875,-90.0569864,1,OK,70116
209,"Pike Rd and Hooper Rd, West Palm Beach, Florida","Hooper Rd & Pike Rd, Florida 33411, USA",,26.6807056,-80.1664939,1,OK,33411
210,"Prezioso Pl, Charleston, West Virginia","Charleston, WV, USA",,38.3498195,-81.6326234,1,OK,
211,"3000 block of Frenchman Street, New Orleans, Louisiana","3000 Frenchmen St, New Orleans, LA 70122, USA",,29.9889441,-90.060007,1,OK,70122
212,"404 S 4th St, Youngwood, Pennsylvania","404 S 4th St, Youngwood, PA 15697, USA",,40.2335659,-79.5831482,1,OK,15697
213,"10700 Patterson Rd, Maxton, North Carolina","10700 Patterson Rd, Maxton, NC 28364, USA",,34.72401,-79.3857457,1,OK,28364
214,"19300 block of Schoolcraft, Detroit, Michigan","19300 Schoolcraft, Detroit, MI 48223, USA",,42.3866522,-83.2310687,1,OK,48223
215,"Fairview Ave, Waynesboro, Pennsylvania","Fairview Ave, Waynesboro, PA 17268, USA",,39.7526179,-77.5918658,1,OK,17268
216,"300 W Canedy St, Springfield, Illinois","300 W Canedy St, Springfield, IL 62704, USA",,39.7924955,-89.6575903,1,OK,62704
217,"Northeast 58th Avenue and Northeast 38th Place, Silver Springs, Florida","NE 58th Ave & NE 38th Pl, Silver Springs, FL 34488, USA",,29.2264611,-82.0536698,1,OK,34488
218,"1111 High Road, Tallahassee, Florida","1111 High Rd, Tallahassee, FL 32304, USA",,30.4566,-84.312884,1,OK,32304
219,"Sixth and Madison Streets, Wilmington, Delaware","600 N Madison St, Wilmington, DE 19801, USA",,39.7446211,-75.5561912,1,OK,19801
220,"13500 BLOCK OF GRANDMONT AVE, Detroit, Michigan","13500 Grandmont Ave, Detroit, MI 48227, USA",,42.3847073,-83.2098146,1,OK,48227
221,"Indian Creek Rd, Dandridge, Tennessee","Indian Creek Rd, Tennessee 37725, USA",,35.9836316,-83.3279927,1,OK,37725
222,"9400 block of Kempwood, Houston, Texas","9400 Kempwood Dr, Houston, TX 77080, USA",,29.822706,-95.524538,1,OK,77080
223,"6894 Cliffdale Rd, Fayetteville, North Carolina","6894 Cliffdale Rd, Fayetteville, NC 28314, USA",,35.0603482,-79.0115499,1,OK,28314
224,"1701 Airport Blvd, San Jose, California","1701 Airport Blvd, San Jose, CA 95110, USA",,37.3663999,-121.9260847,1,OK,95110
225,"1600 block of Mill Creek Dr, Prospect, Oregon","1600 Mill Creek Dr, Prospect, OR 97536, USA",,42.7183863,-122.5418659,1,OK,97536
226,"AR 18 and Pitts Rd, Cash, Arkansas","AR-18, Arkansas, USA",,35.7943327,-90.9366548,1,OK,
227,"3406 W FLORIST AVE, Milwaukee, Wisconsin","3406 W Florist Ave, Milwaukee, WI 53209, USA",,43.1267177,-87.9550561,1,OK,53209
228,"Kossuth Ave and E Prairie Ave, Saint Louis, Missouri","E Prairie Ave & Kossuth Ave, St. Louis, MO 63107, USA",,38.666599,-90.2183568,1,OK,63107
229,"5200 block of Royce Drive, Amarillo, Texas","5200 Royce Dr, Amarillo, TX 79110, USA",,35.1531389,-101.8760067,1,OK,79110
230,"Elder and Cawfield Streets, Boston, Massachusetts","Cawfield St & Elder St, Boston, MA 02125, USA",,42.3204546,-71.0636689,1,OK,2125
231,"700 Poplar St, Jacksonville, Arkansas","700 Poplar St, Jacksonville, AR 72076, USA",,34.8697032,-92.1163652,1,OK,72076
232,"Nacogdoches and O'Connor, San Antonio, Texas","Nacogdoches & O'Connor, San Antonio, TX 78247, USA",,29.568426,-98.384802,1,OK,78247
233,"Portland Ave and Stonewall Ave, Shreveport, Louisiana","Portland Ave & Stonewall St, Shreveport, LA 71103, USA",,32.489221,-93.777214,1,OK,71103
234,"111 Lewis St, Nashville, Tennessee","111 Lewis St, Nashville, TN 37210, USA",,36.1523112,-86.7576056,1,OK,37210
235,"6900 block of South Artesian Avenue, Chicago, Illinois","6900 S Artesian Ave, Chicago, IL 60629, USA",,41.768063,-87.6847317,1,OK,60629
236,"1700 block of Elysian Fields Avenue, New Orleans, Louisiana","1700 Elysian Fields Ave, New Orleans, LA 70117, USA",,29.9747138,-90.0576919,1,OK,70117
237,"6200 block of 5 Notch Rd, Marshall, Texas","6200 5 Notch Rd, Marshall, TX 75672, USA",,32.4837149,-94.3336416,1,OK,75672
238,"1600 block of 16th Street SE, Washington, District of Columbia","1600 16th St SE, Washington, DC 20020, USA",,38.870624,-76.981931,1,OK,20020
239,"1224 Northwest 38th Street, Allapattah, Florida","1224 NW 38th St, Miami, FL 33142, USA",,25.8112248,-80.2163802,1,OK,33142
240,"1500 block of 3rd Avenue Southeast, Cedar Rapids, Iowa","1500 3rd Ave SE, Cedar Rapids, IA 52403, USA",,41.9867417,-91.6505862,1,OK,52403
241,"1000 block of S. Melrose, Casper, Wyoming","1000 S Melrose St, Casper, WY 82601, USA",,42.8405891,-106.3086594,1,OK,82601
242,"900 Park Forest Ln, Jacksonville, Florida","900 Park Forest Ln, Jacksonville, FL 32211, USA",,30.3303842,-81.5681913,1,OK,32211
243,"274 Eastchester Drive, High Point, North Carolina","274 Eastchester Dr, High Point, NC 27262, USA",,35.9828747,-80.0172977,1,OK,27262
244,"400 block of Grant Street, Aurora, Illinois","400 S Grant St, North Aurora, IL 60542, USA",,41.7887877,-88.3149211,1,OK,60542
245,"Siesta Dr, Snowflake, Arizona","Siesta Dr, Snowflake, AZ 85937, USA",,34.4805805,-110.0946883,1,OK,85937
246,"2080 Airport Rd, Columbus, Mississippi","2080 Airport Rd, Columbus, MS 39701, USA",,33.4507354,-88.5893385,1,OK,39701
247,"3951 NW Blitchton Road, Ocala, Florida","3951 NW Blitchton Rd, Ocala, FL 34475, USA",,29.2101957,-82.1856166,1,OK,34475
248,"100 block of Atlantic Street SW, Washington, District of Columbia","100 Atlantic St SW, Washington, DC 20032, USA",,38.83164,-77.0099322,1,OK,20032
249,"474 E. 25th Street, Paterson, New Jersey","474 E 25th St, Paterson, NJ 07514, USA",,40.9232755,-74.1486212,1,OK,7514
250,"8100 block of 6th Avenue South, Birmingham, Alabama","8100 6th Ave S, Birmingham, AL 35206, USA",,33.5638909,-86.7164017,1,OK,35206
251,"S 55th St and Center St, Omaha, Nebraska","S 55th St & Center St, Omaha, NE 68106, USA",,41.2389982,-95.9979845,1,OK,68106
252,"5513 8th Street Southwest, Lehigh Acres, Florida","5513 8th St SW, Lehigh Acres, FL 33976, USA",,26.6051676,-81.7127766,1,OK,33976
253,"533 Maywood Ave, Clendenin, West Virginia","533 Maywood Ave E, Clendenin, WV 25045, USA",,38.490542,-81.3343381,2,OK,25045
254,"622 Prescott Street, Manchester, New Hampshire","622 Prescott St, Manchester, NH 03103, USA",,42.9793074,-71.4472083,1,OK,3103
255,"400 block of Center St, Woodstock, Illinois","400 Center St, Woodstock, IL 60098, USA",,42.3187618,-88.4423361,1,OK,60098
256,"775 40th St SE, Buffalo, Minnesota","775 40th St SE, Buffalo, MN 55313, USA",,45.0927108,-93.8731844,1,OK,55313
257,"Washington St and Gold St, Whitman, Massachusetts","Washington St & Gold St, Whitman, MA 02382, USA",,42.0815786,-70.9376353,1,OK,2382
258,"7900 Block of Edwards Rd, Castalia, North Carolina","7900 Edwards Rd, Castalia, NC 27816, USA",,36.0562691,-78.0432909,1,OK,27816
259,"Anderson Road and John Henry Lane, Hendersonville, Tennessee","John Henry Ln & Anderson Rd, Hendersonville, TN 37075, USA",,36.3511055,-86.5888739,1,OK,37075
260,"400 block of East Jackson Street, Bloomington, Indiana","400 E Jackson St, Bloomington, IL 61701, USA",,40.4754484,-88.9898812,2,OK,61701
261,"2800 block of 19th Street, Meridian, Mississippi","2800 19th St, Meridian, MS 39301, USA",,32.3765155,-88.7065052,1,OK,39301
262,"Third Avenue and Yesler Way, Seattle, Washington","3rd Ave & Yesler Way, Seattle, WA 98104, USA",,47.6017208,-122.3304467,1,OK,98104
263,"1500 block of Arlington Avenue, Allentown, Pennsylvania","1500 Arlington Ave, Pittsburgh, PA 15210, USA",,40.4192328,-79.9892808,1,OK,15210
264,"Yearwood Road, Bethlehem, Georgia","Yearwood Rd, Bethlehem, GA, USA",,33.9248306,-83.7025037,1,OK,
265,"400 block of C Street , Patterson, California","400 C St, Patterson, CA 95363, USA",,37.466399,-121.128059,1,OK,95363
266,"1128 N Miller St, Wenatchee, Washington","1128 N Miller St, Wenatchee, WA 98801, USA",,47.4379228,-120.3261004,1,OK,98801
267,"900 Block of Main Ave SW, Hickory, North Carolina","900 Main Ave SW, Hickory, NC 28602, USA",,35.7312533,-81.3597541,1,OK,28602
268,"4600 Buford Highway, Chamblee, Georgia","4600 Buford Hwy NE, Chamblee, GA 30341, USA",,33.8754664,-84.2940402,1,OK,30341
269,"219 Center Street, Sandusky, Ohio","219 Center St, Sandusky, OH 44870, USA",,41.4486671,-82.7087262,1,OK,44870
270,"East 19th Street, Paterson, New Jersey","E 19th St, Paterson, NJ, USA",,40.9301401,-74.1511803,2,OK,
271,"Maryland Circle, Columbus, Georgia","Maryland Cir, Columbus, GA 31907, USA",,32.5005896,-84.9298229,1,OK,31907
272,"Highway 6 and Galliard Street, Eutawville, South Carolina","SC-6 & Galliard St, South Carolina 29048, USA",,33.4023541,-80.3510738,1,OK,29048
273,"5300 block of Cold Springs Rd, Paducah, Kentucky","5300 Cold Springs Rd, Paducah, KY 42001, USA",,37.1108727,-88.7173771,1,OK,42001
274,"Box Elder St and W Bypass, Williston, North Dakota","Box Elder St, Williston, ND 58801, USA",,48.1637502,-103.6368553,1,OK,58801
275,"Oak Hill Drive, Athens, Georgia","Oak Hill Dr, Athens, GA 30601, USA",,33.9750488,-83.3571205,1,OK,30601
276,"1000 block of Martin Luther King Jr. Boulevard, Los Angeles, California","1000 W Martin Luther King Jr Blvd, Los Angeles, CA 90037, USA",,34.0108618,-118.2915929,1,OK,90037
277,"7812 Emory Chase Lane, Knox (county), Tennessee","7812 Emory Chase Ln, Knoxville, TN 37918, USA",,36.111079,-83.8792109,1,OK,37918
278,"12000 block of North Russell Avenue, Fresno (county), California","12000 N Russell Ave, Firebaugh, CA 93622, USA",,36.9089145,-120.6544966,1,OK,93622
279,"18th and West , Oakland, California","West St & 18th St, Oakland, CA 94612, USA",,37.8102645,-122.2778243,2,OK,94612
280,"2404 Lillie Street, Fort Wayne, Indiana","2404 Lillie St, Fort Wayne, IN 46803, USA",,41.0635418,-85.1157408,1,OK,46803
281,"4th Street, Buffalo, New York","4th St, Buffalo, NY 14201, USA",,42.889471,-78.8879631,1,OK,14201
282,"1400 John Clark Road, Dover, Delaware","1400 John Clark Rd, Dover, DE 19904, USA",,39.1325199,-75.5373297,1,OK,19904
283,"Arsene Road, Lake Charles, Louisiana","Arsene Rd, 10, LA 70615, USA",,30.276521,-93.072616,1,OK,70615
284,"718 South 2nd Avenue, Sioux Falls, South Dakota","718 S 2nd Ave, Sioux Falls, SD 57104, USA",,43.5398693,-96.7233517,1,OK,57104
285,"511 N. Miller St., Toledo, Ohio","511 N Miller St, Toledo, OH 43607, USA",,41.6449902,-83.5654922,1,OK,43607
286,"White Horse Pike, Hammonton, New Jersey","White Horse Pike, Hammonton, NJ, USA",,39.6790536,-74.8295031,1,OK,
287,"800 block of Berkley Avenue, Chesapeake, Virginia","800 Berkley Ave Ext, Chesapeake, VA 23324, USA",,36.8275088,-76.2743576,1,OK,23324
288,"2375 International Pkwy, Io (county), Texas","Texas, USA",,31.9685988,-99.9018131,1,OK,
289,"1600 block of Hile Ave, Long Beach, California","1600 Hile Ave, Long Beach, CA 90804, USA",,33.787423,-118.159488,1,OK,90804
290,"100 N Ross St, Columbus, Indiana","100 N Ross St, Columbus, IN 47201, USA",,39.1987198,-85.8935581,1,OK,47201
291,"700 block of Copeman Boulevard, Flint, Michigan","700 Copeman Blvd, Flint, MI 48504, USA",,43.0293266,-83.7130649,1,OK,48504
292,"1625 Park Street, Hartford, Connecticut","1625 Park St, Hartford, CT 06106, USA",,41.7572394,-72.7054373,1,OK,6106
293,"419 E. Park St, Toledo, Ohio","419 E Park St, Toledo, OH 43608, USA",,41.6799288,-83.5356073,1,OK,43608
294,"4000 block of N. 13th St, Milwaukee, Wisconsin","4000 N 13th St, Milwaukee, WI 53209, USA",,43.089464,-87.9270848,1,OK,53209
295,"127 Forest Lakes Blvd #1, Oldsmar, Florida",,,,,0,REQUEST_DENIED,
296,"727 Seborn Avenue, Zanesville, Ohio","727 Seborn Ave, Zanesville, OH 43701, USA",,39.9205151,-82.0164245,1,OK,43701
297,"MS Highway 15 North, Laurel, Mississippi","MS-15, Laurel, MS, USA",,31.688488,-89.1231434,1,OK,
298,"Rochell Ave and Hazelwood Dr, Capitol Heights, Maryland","Hazelwood Dr & Rochell Ave, Capitol Heights, MD 20743, USA",,38.8661328,-76.8982034,1,OK,20743
299,"15800 block of Manor, Detroit, Michigan","15800 Manor, Detroit, MI 48238, USA",,42.4077983,-83.1682663,1,OK,48238
300,"300 W. Clark Street, Albert Lea, Minnesota","300 W Clark St, Albert Lea, MN 56007, USA",,43.64975,-93.3713051,1,OK,56007
301,"10970 S. Parker Road, Parker, Colorado","10970 S Parker Rd, Parker, CO 80134, USA",,39.5173255,-104.7632404,1,OK,80134
302,"700 block of W 21st St, Clovis, New Mexico","700 W 21st St, Clovis, NM 88101, USA",,34.4193543,-103.2136144,1,OK,88101
303,"NE 36th and Lottie, Oklahoma City, Oklahoma","N Lottie Ave & NE 36th St, Oklahoma City, OK 73111, USA",,35.5077108,-97.4899266,1,OK,73111
304,"Joe Carl Road, Theodore, Alabama","Joe Carl Rd, Alabama 36582, USA",,30.4665536,-88.1535478,1,OK,36582
305,"N 84th St and W Keefe Ave, Milwaukee, Wisconsin","N 84th St & W Keefe Ave, Milwaukee, WI 53222, USA",,43.0825216,-88.0175374,1,OK,53222
306,"2600 block of Lexington Ave, Warren, Ohio","2600 Lexington Ave NW, Warren, OH 44485, USA",,41.2586041,-80.8465009,1,OK,44485
307,"Buffalo Rd, Palmetto, Florida","Buffalo Rd, Florida 34221, USA",,27.5890457,-82.5111929,1,OK,34221
308,"100 Block of E Palmetto Park Rd, Boca Raton, Florida","100 E Palmetto Park Rd, Boca Raton, FL 33432, USA",,26.350061,-80.0861677,1,OK,33432
309,"4900 South Paulina Avenue, Chicago, Illinois","4900 S Paulina St, Chicago, IL 60609, USA",,41.8049334,-87.667314,1,OK,60609
310,"33rd and Cuming, Omaha, Nebraska","N 33rd St & Cuming St, Omaha, NE 68131, USA",,41.2680222,-95.9611471,1,OK,68131
311,"Saklan Rd and W Winton Ave, Hayward, California","W Winton Ave & Saklan Rd, Mt. Eden, CA 94545, USA",,37.6530736,-122.1187502,1,OK,94545
312,"5th Street, Rochester, New York","5th St, Rochester, NY 14605, USA",,43.1685907,-77.5835286,1,OK,14605
313,"500 block of Autauga County 83, Jones community, Prattville, Alabama","500 Autauga County 83, Jones, AL 36749, USA",,32.5454538,-86.895489,3,OK,36749
314,"The Plaza and Matheson Ave, Charlotte, North Carolina","Matheson Ave & The Plaza, Charlotte, NC 28205, USA",,35.2380778,-80.7996898,2,OK,28205
315,"500 East Loop 820, Fort Worth, Texas","500 E Loop 820, Fort Worth, TX 76112, USA",,32.772249,-97.213842,1,OK,76112
316,"2100 block of West 5th Avenue, Gary, Indiana","2100 W 5th Ave, Gary, IN 46404, USA",,41.6022662,-87.3631984,1,OK,46404
317,"100 block of South Rockwell Street, Chicago, Illinois","100 S Rockwell St, Chicago, IL 60612, USA",,41.880202,-87.6910364,1,OK,60612
318,"1500 block of West Chanticleer Road, Anaheim, California","1500 W Chanticleer Rd, Anaheim, CA 92802, USA",,33.8130594,-117.9333718,1,OK,92802
319,"200 block of Jackson Street, Lagrange, Georgia","200 Jackson St, LaGrange, GA 30240, USA",,33.0274127,-85.0479333,1,OK,30240
320,"4501 Abbott Drive, Omaha, Nebraska","4501 Abbott Dr, Omaha, NE 68110, USA",,41.299563,-95.8997558,1,OK,68110
321,"Annette and North Galvez street, New Orleans, Louisiana","N Galvez St, New Orleans, LA, USA",,29.9778956,-90.0411186,1,OK,
322,"Boniface and E 6th, Anchorage, Alaska","E 6th Ave & Boniface Pkwy, Anchorage, AK 99508, USA",,61.2169261,-149.77845,1,OK,99508
323,"350 S Milledge Ave, Athens, Georgia","350 S Milledge Ave, Athens, GA 30605, USA",,33.9508956,-83.3896022,1,OK,30605
324,"2900 block of W Augusta Hills, Greene (county), Missouri","2900 W Augusta Hills St, Springfield, MO 65803, USA",,37.2585323,-93.3335623,1,OK,65803
325,"40 Wilford St, Keene, New Hampshire","40 Wilford St, Keene, NH 03431, USA",,42.942971,-72.2734577,1,OK,3431
326,"5350 Cider Mill Ln, Indianapolis (Lawrence), Indiana","5350 Cider Mill Ln, Lawrence, IN 46226, USA",,39.8500286,-86.0429783,1,OK,46226
327,"7600 block of Campground Rd, Denver, North Carolina","7600 Campground Rd, Denver, NC 28037, USA",,35.5501295,-80.9963201,1,OK,28037
328,"Canfield Drive, Saint Louis (Ferguson), Missouri","Canfield Dr, St. Louis, MO 63136, USA",,38.7389577,-90.2755085,1,OK,63136
329,"3200 block of West 26th Street, Chicago, Illinois","3200 W 26th St, Chicago, IL 60623, USA",,41.8446483,-87.7052438,1,OK,60623
330,"Woodlawn Avenue and Martin Luther King Drive, Jersey City, New Jersey","Woodlawn Ave & Martin Luther King Dr, Jersey City, NJ 07305, USA",,40.7038828,-74.0872973,1,OK,7305
331,"421 Airport Rd, Williston, North Dakota","421 Airport Rd, Williston, ND 58801, USA",,48.1761676,-103.6317668,2,OK,58801
332,"2300 block of 13th Ave. South, Saint Petersburg, Florida","2300 13th Ave S, St. Petersburg, FL 33712, USA",,27.757293,-82.6643799,1,OK,33712
333,"1400 block of Elizardi Boulevard, New Orleans, Louisiana","1400 Elizardi Blvd, New Orleans, LA 70114, USA",,29.9400715,-90.0261663,1,OK,70114
334,"7500 Abercorn Street, Savannah, Georgia","7500 Abercorn St, Savannah, GA 31406, USA",,32.0081662,-81.1143672,1,OK,31406
335,"I-35 access road, San Antonio, Texas","Interstate 35 Access Rd, San Antonio, TX, USA",,29.319684,-98.614757,2,OK,
336,"776 N Terminal Dr, Salt Lake City, Utah","776 N Terminal Dr, Salt Lake City, UT 84122, USA",,40.7866133,-111.9818541,1,OK,84122
337,"Old Wilson Burt Rd and West Lake Rd, Newfane, New York","Wilson Burt Rd, New York, USA",,43.3094247,-78.7659566,2,OK,
338,"125 17th Ave SE, Saint Petersburg, Florida","125 17th Ave SE, St. Petersburg, FL 33701, USA",,27.7539797,-82.6333406,1,OK,33701
339,"8500 block of Bobolink Drive, Cincinnati (North College Hill), Ohio","8500 Bobolink Dr, Cincinnati, OH 45231, USA",,39.2218646,-84.5334441,1,OK,45231
340,"1300 block of Southland Pkwy, Marion, Ohio","1300 Southland Pkwy, Marion, OH 43302, USA",,40.5639715,-83.1246706,1,OK,43302
341,"2900 block of Monika Lane Way, Taylor, Texas","2900 Monika Ln, Taylor, TX 76574, USA",,30.589491,-97.4267492,1,OK,76574
342,"58th Avenue and 1st Street, Meridian, Mississippi","1st St & 58th Ave, Meridian, MS 39307, USA",,32.3561506,-88.7369956,1,OK,39307
343,"700 block of East 92nd Place, Chicago, Illinois","700 E 92nd Pl, Chicago, IL 60619, USA",,41.7267333,-87.6068157,1,OK,60619
344,"1240 M-139, Benton Harbor, Michigan","1240 M-139, Benton Harbor, MI 49022, USA",,42.0963331,-86.435772,1,OK,49022
345,"1500 block of Northline Driv, North Little Rock, Arkansas","1500 Northline Dr, North Little Rock, AR 72116, USA",,34.8056312,-92.2491398,1,OK,72116
346,"315 E Galena Blvd, Aurora, Illinois","315 E Galena Blvd, Aurora, IL 60505, USA",,41.7554697,-88.3103864,1,OK,60505
347,"Albany Ave and Adams St, Hartford, Connecticut","Adams St & Albany Ave, Hartford, CT 06112, USA",,41.7831681,-72.6991551,1,OK,6112
348,"2202 Benson Gardens Boulevard, Omaha, Nebraska","2202 Benson Gardens Blvd, Omaha, NE 68134, USA",,41.2788547,-96.0367813,1,OK,68134
349,"166 North St, New Bedford, Massachusetts","166 North St, New Bedford, MA 02740, USA",,41.6380443,-70.9347832,1,OK,2740
350,"10201 Telephone, Houston, Texas","10201 Telephone Rd, Houston, TX 77075, USA",,29.6182507,-95.2846309,1,OK,77075
351,"11th and Clifford Brown Walk, Wilmington, Delaware","11th St @ Clifford Brown Walk, Wilmington, DE 19801, USA",,39.74468,-75.542909,1,OK,19801
352,"12333 Bayleaf Church Road, Wake County, North Carolina","12333 Bayleaf Church Rd, Raleigh, NC 27614, USA",,35.952959,-78.636949,1,OK,27614
353,"2200 block of Mendez Street, New Orleans, Louisiana","2200 Mendez St, New Orleans, LA 70122, USA",,30.015474,-90.0601347,1,OK,70122
354,"Irvine Turner Boulevard and West Kinney Street, Newark, New Jersey","W Kinney St & Irvine Turner Blvd, Newark, NJ 07103, USA",,40.7321149,-74.1892581,1,OK,7103
355,"316 Vickers Rd, Chapel Hill, North Carolina","316 Vickers Rd, Chapel Hill, NC 27517, USA",,35.8195681,-79.079643,1,OK,27517
356,"912 71st Street, Miami Beach, Florida","912 71st St, Miami Beach, FL 33141, USA",,25.8554938,-80.1281377,1,OK,33141
357,"200 block of Highway 93, Helena, Alabama","US-93, United States",,41.4158013,-114.7497093,1,OK,
358,"25 Portland St, Haverhill, Massachusetts","25 Portland St, Haverhill, MA 01830, USA",,42.7784608,-71.0785037,1,OK,1830
359,"45th Avenue and National Street, Corona (Queens), New York","National St & 45th Ave, Queens, NY 11368, USA",,40.7457864,-73.8641868,1,OK,11368
360,"1200 block of Stephen Jones Ave, Saint Louis, Missouri","1200 Stephen Jones Ave, St. Louis, MO 63133, USA",,38.6671924,-90.2948636,1,OK,63133
361,"100 block of W Lime St, Portales, New Mexico","100 W Lime St, Portales, NM 88130, USA",,34.1934725,-103.3401848,1,OK,88130
362,"239 Forest Lane Dr, Mabank, Texas","239 Forest Ln Dr, Mabank, TX 75156, USA",,32.2827005,-96.1201338,1,OK,75156
363,"491 Kingswood Court, Bolivia, North Carolina","491 Kingswood Ct SE, Bolivia, NC 28422, USA",,33.977388,-78.243942,1,OK,28422
364,"Rosewood Drive, Columbus, Georgia","Rosewood Dr, Columbus, GA 31907, USA",,32.4676975,-84.9224293,1,OK,31907
365,"Adair Avenue and Martin Luther King, Columbus, Georgia","Adair Ave & Martin Luther King Jr Blvd, Columbus, GA 31906, USA",,32.463903,-84.9780885,1,OK,31906
366,"1600 block of Hickory Avenue, Bartlesville, Oklahoma","1600 S Hickory Ave, Bartlesville, OK 74003, USA",,36.7335084,-95.9877446,1,OK,74003
367,"18700 block of Croom Road, Brandywine, Maryland","18700 Croom Rd, Brandywine, MD 20613, USA",,38.6301763,-76.7220226,1,OK,20613
368,"N.C. Highway 274, Lincoln (county), North Carolina","NC-274, North Carolina, USA",,35.342071,-81.325784,1,OK,
369,"5000 block of Northwest 51st Avenue, Fort Lauderdale (Lauderhill), Florida","5000 NW 51st Ave, Tamarac, FL 33319, USA",,26.1877547,-80.2186601,1,OK,33319
370,"400 block of Bridge Street, Huntington, West Virginia","400 Bridge St, Huntington, WV 25702, USA",,38.429659,-82.385538,1,OK,25702
371,"14th Ave and 9th St, Greeley, Colorado","14th Ave & 9th St, Greeley, CO 80631, USA",,40.423986,-104.7016259,1,OK,80631
372,"Boxelder and 11th, Casper, Wyoming","S Boxelder St & W 11th St, Casper, WY 82604, USA",,42.8397229,-106.3382229,1,OK,82604
373,"8800 block of Jewella , Shreveport, Louisiana","8800 Jewella Ave, Shreveport, LA 71108, USA",,32.4199007,-93.7977708,1,OK,71108
374,"6000 block of Middleburg Road, Henderson (county), Tennessee","6000 Middleburg Rd, Decaturville, TN 38329, USA",,35.5874647,-88.2530033,1,OK,38329
375,"461 Columbia Rd, Boston, Massachusetts","461 Columbia Rd, Dorchester, MA 02125, USA",,42.3131942,-71.0677675,1,OK,2125
376,"3200 block of F Street, Philadelphia, Pennsylvania","3200 F St, Philadelphia, PA 19134, USA",,39.9970664,-75.11752,1,OK,19134
377,"80 Spruce Street, Stamford, Connecticut","80 Spruce St, Stamford, CT 06902, USA",,41.0510056,-73.5503486,1,OK,6902
378,"1400 block of Granville Place, Saint Louis, Missouri","1400 Granville Pl, St. Louis, MO 63112, USA",,38.666164,-90.274833,1,OK,63112
379,"Memorial Drive and Bridge Street, Paterson, New Jersey","Bridge St & Memorial Dr, Paterson, NJ 07501, USA",,40.9201035,-74.1699142,1,OK,7501
380,"110 Riverfront Park Dr, North Little Rock, Arkansas","110 Riverfront Park Dr, North Little Rock, AR 72114, USA",,34.7530974,-92.2666414,1,OK,72114
381,"700 block of Alexander Street, Montgomery, Alabama","700 Alexander St, Montgomery, AL 36108, USA",,32.3539329,-86.3186006,1,OK,36108
382,"300 block of Lexington Dr, Lawrenceville, Georgia","300 Lexington Dr, Lawrenceville, GA 30046, USA",,33.9475715,-84.0197007,1,OK,30046
383,"1200 block of E. Pleasant Run Rd., Desoto, Texas","1200 E Pleasant Run Rd, DeSoto, TX 75115, USA",,32.6041633,-96.828279,1,OK,75115
384,"4100 block of Bellefontaine , Kansas City, Missouri","4100 Bellefontaine Ave, Kansas City, MO 64130, USA",,39.0515072,-94.5484007,1,OK,64130
385,"694 West Sunrise Highway, Valley Stream, New York","694 Sunrise Hwy, Valley Stream, NY 11581, USA",,40.6649602,-73.7252141,1,OK,11581
386,"3700 block of N Garfield Ave, Loveland, Colorado","3700 N Garfield Ave, Loveland, CO 80538, USA",,40.4305875,-105.0767736,1,OK,80538
387,"300 Sandwedge Drive, Fayetteville, North Carolina","300 Sandwedge Dr, Fayetteville, NC 28311, USA",,35.1469222,-78.8839207,1,OK,28311
388,"12800 block of 66th Ave S, Kent, Washington","12800 66th Ave S, Kent, WA 98032, USA",,47.4317512,-122.2508691,1,OK,98032
389,"S. St. Mary's St., San Antonio, Texas","S St Mary's St, San Antonio, TX, USA",,29.4128586,-98.4885685,1,OK,
390,"2503 S. 87th East Avenue, Tulsa, Oklahoma","2503 S 87th E Ave S, Tulsa, OK 74129, USA",,36.1270927,-95.8796675,1,OK,74129
391,"381 S Walnut St, La Habra, California","381 S Walnut St, La Habra, CA 90631, USA",,33.9284796,-117.9504874,1,OK,90631
392,"South 20th Street, Baton Rouge, Louisiana","S 20th St, Baton Rouge, LA 70806, USA",,30.445786,-91.16802,1,OK,70806
393,"Kelly Hill Road, Clendenin, West Virginia","Kelly Hill Rd, Clendenin, WV, USA",,38.4837041,-81.3670697,1,OK,
394,"Shepherd and Belmont Avenue, Brooklyn, New York","Shepherd Ave & Belmont Ave, Brooklyn, NY 11208, USA",,40.6728541,-73.8804832,1,OK,11208
395,"High Street, New Britain, Connecticut","High St, New Britain, CT, USA",,41.6746609,-72.78617,1,OK,
396,"1400 block of Arch St, Pittsburgh, Pennsylvania","1400 Arch St, Pittsburgh, PA 15212, USA",,40.4574247,-80.0091607,1,OK,15212
397,"Liberty Street, Jackson, Mississippi","Liberty St, Jackson, MS 39213, USA",,32.3423322,-90.2204721,1,OK,39213
398,"Zara Street, Pittsburgh, Pennsylvania","Zara St, Pittsburgh, PA 15210, USA",,40.4157933,-79.9924863,1,OK,15210
399,"850 block of W Liberty St, Cincinnati, Ohio","850 W Liberty St, Cincinnati, OH 45214, USA",,39.1141377,-84.5290886,1,OK,45214
400,"Andrew St, Springfield, Massachusetts","Andrew St, Springfield, MA 01109, USA",,42.1140008,-72.5621889,1,OK,1109
401,"4900 block of Hutchinson St, Philadelphia, Pennsylvania","4900 N Hutchinson St, Philadelphia, PA 19141, USA",,40.0267774,-75.1397505,1,OK,19141
402,"Amalie Drive, Statham, Georgia","Amalie Dr, Statham, GA 30666, USA",,33.9695308,-83.6202038,1,OK,30666
403,"48-31 59th St, Flushing, New York","48-31 59th St, Flushing, NY 11377, USA",,40.737645,-73.90622,1,OK,11377
404,"1200 block of Avenue B, Marrero, Louisiana","1200 Avenue B, Marrero, LA 70072, USA",,29.890444,-90.0927992,1,OK,70072
405,"South 19th Street, Wyandanch, New York","S 19th St, Wyandanch, NY 11798, USA",,40.7511294,-73.363778,1,OK,11798
406,"Bergen Avenue, Jersey City, New Jersey","Bergen Ave, Jersey City, NJ, USA",,40.7174445,-74.0769272,1,OK,
407,"4511 Portsmouth Dr, Jacksonville, Florida","4511 Portsmouth Ave, Jacksonville, FL 32208, USA",,30.4079096,-81.717699,1,OK,32208
408,"9700 block of East 33rd Street, Tulsa, Oklahoma","9700 E 33rd St, Tulsa, OK 74146, USA",,36.1162227,-95.8686225,1,OK,74146
409,"900 block of 23rd Street South, Birmingham, Alabama","900 23rd St S, Birmingham, AL 35205, USA",,33.5051485,-86.794046,1,OK,35205
410,"Excalibur Ave, Cleveland (Parma), Ohio","10901 Brookpark Rd, Parma, OH 44130, USA",,41.417665,-81.763148,1,OK,44130
411,"2500 block of Center Street NW, Atlanta, Georgia","2500 Center St NW, Atlanta, GA 30318, USA",,33.7906634,-84.4725837,1,OK,30318
412,"1800 block of W. 36th Street, North Little Rock, Arkansas","1800 W 36th St, North Little Rock, AR 72118, USA",,34.7877169,-92.2880433,1,OK,72118
413,"6100 Editors Park Dr, Prince Georges (county), Maryland","6100 Editors Park Dr, Hyattsville, MD 20782, USA",,38.9643439,-76.960419,1,OK,20782
414,"100 block of Plainview Drive, San Antonio, Texas","100 Plainview Dr, San Antonio, TX 78228, USA",,29.4466987,-98.5665297,1,OK,78228
415,"101 E Market St, Charlottesville, Virginia","101 E Market St, Charlottesville, VA 22902, USA",,38.031555,-78.480664,1,OK,22902
416,"7777 E Apache St, Tulsa, Oklahoma","7777 E Apache St, Tulsa, OK 74115, USA",,36.1905187,-95.8895339,1,OK,74115
417,"1135 Erie Blvd East, Syracuse, New York","1135 Erie Blvd E, Syracuse, NY 13210, USA",,43.0509242,-76.132403,1,OK,13210
418,"I-35 frontage road and 11th Street , Austin, Texas","E 11th St & N Interstate 35 Frontage Rd, Austin, TX 78701, USA",,30.27056,-97.7332919,1,OK,78701
419,"East Britton Drive, Niagara Falls, New York","E Britton Dr, Niagara Falls, NY 14304, USA",,43.1208264,-78.9760005,1,OK,14304
420,"11200 Inez Dr, Jacksonville, Florida","11200 Inez Dr, Jacksonville, FL 32218, USA",,30.439674,-81.6380268,1,OK,32218
421,"Nautical Court , Atwater, California","Nautical Ct, Atwater, CA 95301, USA",,37.3693336,-120.5921953,1,OK,95301
422,"134th Street and 49th Avenue, Corona (Queens), New York","8020 134th St, Jamaica, NY 11435, USA",,40.7152187,-73.8245218,1,OK,11435
423,"51 Copeland Ln, Newport News, Virginia","51 Copeland Ln, Newport News, VA 23601, USA",,37.052569,-76.475836,1,OK,23601
424,"320 US 7, Rutland, Vermont","320 US-7, Rutland, VT 05701, USA",,43.5850627,-72.9708774,1,OK,5701
425,"3164 Waccamaw Boulevard, Myrtle Beach, South Carolina","3164 Waccamaw Blvd, Myrtle Beach, SC 29579, USA",,33.7184748,-78.9263933,1,OK,29579
426,"8700 North 50th Street, Tampa, Florida","8700 N 50th St, Tampa, FL 33617, USA",,28.0307859,-82.4033313,1,OK,33617
427,"Busch Blvd, Columbus, Ohio","Busch Blvd, Columbus, OH 43229, USA",,40.0953626,-82.9935598,1,OK,43229
428,"200 block of S Maplewood, Chicago, Illinois","200 S Maplewood Ave, Chicago, IL 60612, USA",,41.8782196,-87.6900834,1,OK,60612
429,"9800 Airport Blvd, San Antonio, Texas","9800 Airport Blvd, San Antonio, TX 78216, USA",,29.5257225,-98.4746493,1,OK,78216
430,"County Road 2303, Rusk, Texas","Co Rd 2303, Texas 75785, USA",,31.7513593,-95.161505,1,OK,75785
431,"3642 Boulder Hwy, Las Vegas, Nevada","3642 Boulder Hwy, Las Vegas, NV 89121, USA",,36.1405432,-115.0969406,1,OK,89121
432,"1200 block of Hampton Ave, Greenville, South Carolina","1200 Hampton Ave, Greenville, SC 29601, USA",,34.8644926,-82.4160208,1,OK,29601
433,"Milburn Street , Greensboro, North Carolina","Milburn St, Greensboro, NC 27406, USA",,36.0598785,-79.7967254,1,OK,27406
434,"100 block of Sansovino , Ladera Ranch, California","100 Sansovino, Mission Viejo, CA 92694, USA",,33.5542084,-117.6466127,1,OK,92694
435,"Horizon Circle, Charlotte, North Carolina","Horizon Cir, Charlotte, NC 28215, USA",,35.2521351,-80.773205,1,OK,28215
436,"2700 block of Lee Street, Columbus, Georgia","2700 Lee St, Columbus, GA 31903, USA",,32.4446474,-84.9553704,1,OK,31903
437,"Cawfield Street, Boston, Massachusetts","Cawfield St, Boston, MA 02125, USA",,42.3198056,-71.063696,1,OK,2125
438,"Rogers Ave, Lynn, Massachusetts","Rogers Ave, Lynn, MA 01902, USA",,42.4673983,-70.9508561,1,OK,1902
439,"North Fifth Avenue, Rome, Georgia","N 5th Ave, Rome, GA, USA",,34.2614018,-85.1765554,1,OK,
440,"Morrisville Carpenter Road, Cary, North Carolina","Morrisville Carpenter Rd, Cary, NC, USA",,35.8207692,-78.85079,1,OK,
441,"4800 block of West Center Street, Milwaukee, Wisconsin","4800 W Center St, Milwaukee, WI 53210, USA",,43.0679486,-87.9737105,1,OK,53210
442,"7600 block of Taylorsville Road, Dayton (Huber Heights), Ohio","7600 Taylorsville Rd, Huber Heights, OH 45424, USA",,39.8600236,-84.098411,1,OK,45424
443,"14200 block of Railroad Avenue, Walnut Grove, California","Railroad Ave, Walnut Grove, CA, USA",,38.2376683,-121.5148702,1,OK,
444,"3700 block of Prospect Dr, Winston Salem (Winston-salem), North Carolina","3700 Prospect Dr, Winston-Salem, NC 27105, USA",,36.1354658,-80.2122404,1,OK,27105
445,"800 block of Downing Street, New Smyrna Beach, Florida","800 Downing St, New Smyrna Beach, FL 32168, USA",,29.0210722,-80.929954,1,OK,32168
446,"30 block of Swanson Pkwy, Portsmouth, Virginia","30 Swanson Pkwy, Portsmouth, VA 23704, USA",,36.8298188,-76.3194942,1,OK,23704
447,"1500 block of Centerpark Drive North , West Palm Beach, Florida","West Palm Beach, FL, USA",,26.7153424,-80.0533746,1,OK,
448,"1000 block of West Cumberland Street, Philadelphia, Pennsylvania","1000 W Cumberland St, Philadelphia, PA 19133, USA",,39.9896539,-75.1484571,1,OK,19133
449,"Broadway, Buffalo, New York","Broadway - Fillmore, Buffalo, NY, USA",,42.8917648,-78.835433,1,OK,
450,"1900 block of North Sixth Street, Concord, California","1900 N 6th St, Concord, CA 94519, USA",,37.9821466,-122.0186357,1,OK,94519
451,"721 Cameron St, Burlington, North Carolina","721 Cameron St, Burlington, NC 27215, USA",,36.0849938,-79.4386766,1,OK,27215
452,"601 North Central Street, East Bridgewater, Massachusetts","601 N Central St, East Bridgewater, MA 02333, USA",,42.0301573,-70.9787116,1,OK,2333
453,"3200 block of Allison Ave, Memphis, Tennessee","3200 Allison Ave, Memphis, TN 38112, USA",,35.1448253,-89.9544746,1,OK,38112
454,"1600 West Cleveland Avenue, Milwaukee, Wisconsin","1600 W Cleveland Ave, Milwaukee, WI 53215, USA",,42.9956366,-87.9336534,1,OK,53215
455,"1733 Dickinson St, Philadelphia, Pennsylvania","1733 Dickinson St, Philadelphia, PA 19146, USA",,39.9326496,-75.1742147,1,OK,19146
456,"4500 block of 8th Avenue, Saint Petersburg, Florida","4500 8th Ave N, St. Petersburg, FL 33713, USA",,27.7800682,-82.6917446,1,OK,33713
457,"500 Block of Memorial Park Dr, Thomasville, North Carolina","500 Memorial Park Dr, Thomasville, NC 27360, USA",,35.8915307,-80.0825945,1,OK,27360
458,"14535 W 4000 N, Altamont, Utah","14535 4000 N, Altonah, UT 84002, USA",,40.3595745,-110.2656438,1,OK,84002
459,"1300 block of France Street, New Orleans, Louisiana","1300 France St, New Orleans, LA 70117, USA",,29.9671701,-90.0329559,1,OK,70117
460,"100 block of Saratoga Ave, Santa Clara, California","100 Saratoga Ave, Santa Clara, CA 95051, USA",,37.3258539,-121.9681513,1,OK,95051
461,"500 block of North Brundage Avenue , Farmersville, California","500 N Brundage Ave, Farmersville, CA 93223, USA",,36.3015463,-119.1949757,1,OK,93223
462,"1900 block of Baker St., Baltimore, Maryland","1900 Baker St, Baltimore, MD 21217, USA",,39.3066035,-76.6480066,1,OK,21217
463,"Calumet Drive, Orlando, Florida","Calumet Dr, Florida 32810, USA",,28.637813,-81.4190756,1,OK,32810
464,"Van Buren and 52nd Streets, Phoenix, Arizona","E Van Buren St & N 52nd St, Phoenix, AZ 85008, USA",,33.450986,-111.9682707,1,OK,85008
465,"1214 Labelle St, Jacksonville, Florida","1214 Labelle St, Jacksonville, FL 32205, USA",,30.3025396,-81.7322066,1,OK,32205
466,"Jewett Avenue, Buffalo, New York","Jewett Ave, Buffalo, NY 14214, USA",,42.9337235,-78.8384637,1,OK,14214
467,"1800 block of Oakbrook Rd., Smith County, Texas","Oakbrook Rd, Texas 75703, USA",,32.2046503,-95.3082159,1,OK,75703
468,"6325 North Wayside, Houston, Texas","6325 N Wayside Dr, Houston, TX 77028, USA",,29.8205975,-95.2847096,1,OK,77028
469,"2300 block of West Addison, Chicago, Illinois","2300 W Addison St, Chicago, IL 60618, USA",,41.946759,-87.6858356,1,OK,60618
470,"24th and Vane Street, Omaha, Nebraska","N 24th St & Vane St, Omaha, NE 68112, USA",,41.322942,-95.9469236,1,OK,68112
471,"4600 block of Cleveland Avenue, Fort Myers, Florida","4600 S Cleveland Ave, Fort Myers, FL 33907, USA",,26.5948712,-81.8726792,1,OK,33907
472,"375 Lake Ave, Manchester, New Hampshire","375 Lake Ave, Manchester, NH 03103, USA",,42.9870747,-71.449347,1,OK,3103
473,"Winchester Rd and Outland Rd, Memphis, Tennessee","Winchester Rd & Outland Rd, Memphis, TN 38118, USA",,35.0509818,-89.9017249,1,OK,38118
474,"1102 Mound Ave, Racine, Wisconsin","1102 Mound Ave, Racine, WI 53404, USA",,42.7302381,-87.7934808,1,OK,53404
475,"Robert Smalls Parkway, Beaufort, South Carolina","Robert Smalls Pkwy, Beaufort, SC, USA",,32.4189391,-80.7427849,1,OK,
476,"10446 Jefferson Highway, Baton Rouge, Louisiana","10446 Jefferson Hwy, Baton Rouge, LA 70809, USA",,30.4085409,-91.0667622,1,OK,70809
477,"Isil Avenue, Bakersfield, California","Isil Ave, Bakersfield, CA 93304, USA",,35.3045644,-119.021879,1,OK,93304
478,"10699 US-60, Ashland, Kentucky","10699 US-60, Ashland, KY 41102, USA",,38.4001166,-82.7141438,1,OK,41102
479,"400 block of W. Center Street, Milwaukee, Wisconsin","400 W Center St, Milwaukee, WI 53212, USA",,43.0675782,-87.9155283,1,OK,53212
480,"Banks Avenue, Superior, Wisconsin","Banks Ave, Superior, WI 54880, USA",,46.6657872,-92.1058687,2,OK,54880
481,"1200 block of I Street SE, Washington, District of Columbia","1200 I St SE, Washington, DC 20003, USA",,38.8794315,-76.9901419,1,OK,20003
482,"501 East Stassney Lane, Austin, Texas","501 E Stassney Ln, Austin, TX 78745, USA",,30.2019404,-97.7719109,1,OK,78745
483,"174 Brock Rd, Gurley, Alabama","174 Brock Rd, Gurley, AL 35748, USA",,34.7380645,-86.4303531,1,OK,35748
484,"4700 block of Wickford Dr W, Sylvania, Ohio","4700 Wickford Dr W, Sylvania, OH 43560, USA",,41.7004904,-83.7010845,1,OK,43560
485,"Ackia Drive, Crossville, Tennessee","Ackia Dr, Crossville, TN 38572, USA",,35.8880259,-85.056309,1,OK,38572
486,"800 block of Legarde Avenue, Anniston, Alabama","800 Legarde Ave, Anniston, AL 36201, USA",,33.6557214,-85.8414047,1,OK,36201
487,"FIllmore Avenue and East Utica Street, Buffalo, New York","E Utica St & Fillmore Ave, Buffalo, NY 14211, USA",,42.9109323,-78.8390737,1,OK,14211
488,"2100 block of Windsor St, Chattanooga, Tennessee","2100 Windsor St, Chattanooga, TN 37406, USA",,35.0482298,-85.2648547,1,OK,37406
489,"2700 block of El Dorado Avenue, Oxnard, California","2700 El Dorado Ave, Oxnard, CA 93033, USA",,34.1744247,-119.1486726,1,OK,93033
490,"418 Agnes Rd, Knoxville, Tennessee","418 Agnes Rd, Knoxville, TN 37919, USA",,35.929982,-83.998148,1,OK,37919
491,"1100 block of South Villa Dr, Evansville, Indiana","1100 S Villa Dr, Evansville, IN 47714, USA",,37.9618618,-87.5156511,1,OK,47714
492,"1000 block of South Kedzie, Chicago, Illinois","1000 S Kedzie Ave, Chicago, IL 60612, USA",,41.8691191,-87.7057379,1,OK,60612
493,"300 block of Mistletoe Street, Petersburg, Virginia","300 Mistletoe St, Petersburg, VA 23803, USA",,37.2167361,-77.4049063,1,OK,23803
494,"4800 block of East Lane Avenue, Fresno, California","4800 E Lane Ave, Fresno, CA 93727, USA",,36.7323074,-119.736323,1,OK,93727
495,"14100 block of Greenfield, Detroit, Michigan","14100 Greenfield Rd, Detroit, MI 48227, USA",,42.3894969,-83.19824,1,OK,48227
496,"Compton Ave and E 117th St, Los Angeles, California","1746 E 117th St, Los Angeles, CA 90059, USA",,33.9272613,-118.2418808,1,OK,90059
497,"Route 130, Mashpee, Massachusetts","MA-130, Mashpee, MA, USA",,41.6489002,-70.4820487,1,OK,
498,"South Manley Road and Tornell Circle, Ripon, California","Manley Rd & Tornell Cir, Ripon, CA 95366, USA",,37.7378214,-121.1147953,1,OK,95366
499,"302 South Clay Street, Louisville, Kentucky","302 S Clay St, Louisville, KY 40202, USA",,38.2515809,-85.7407084,1,OK,40202
500,"3500 block of S Warren Ave, Butte, Montana","3500 S Warren Ave, Butte, MT 59701, USA",,45.9739805,-112.5179844,1,OK,59701
501,"900 block of West Fayette Street, Baltimore, Maryland","900 W Fayette St, Baltimore, MD 21223, USA",,39.290137,-76.632362,1,OK,21223
502,"100 block of Engleside Drive, Richmond, Virginia","100 Engleside Dr, Richmond, VA 23222, USA",,37.5866237,-77.4321636,1,OK,23222
503,"40th St and Boulevard Place, Indianapolis, Indiana","W 40th St & Boulevard Pl, Indianapolis, IN 46208, USA",,39.8283034,-86.163991,2,OK,46208
504,"6800 block of South Green Street, Chicago, Illinois","6800 S Green St, Chicago, IL 60621, USA",,41.770605,-87.6457725,1,OK,60621
505,"4600 block of South Evans Avenue, Chicago, Illinois","4600 S Evans Ave, Chicago, IL 60653, USA",,41.8111173,-87.6080695,1,OK,60653
506,"6300 block of The Plaza Road, Charlotte, North Carolina","6300 The Plaza, Charlotte, NC 28215, USA",,35.249571,-80.7497876,1,OK,28215
507,"2821 Wyandotte Ave, Oroville, California","2821 Wyandotte Ave, Oroville, CA 95966, USA",,39.5003156,-121.5411706,1,OK,95966
508,"Cottage Avenue, North Bergen, New Jersey","Cottage Ave, North Bergen, NJ 07047, USA",,40.7998392,-74.0185361,2,OK,7047
509,"SE 90th and Duke St, Portland, Oregon","SE Duke St & SE 90th Ave, Portland, OR 97266, USA",,45.4756523,-122.5707486,1,OK,97266
510,"2200 block of S Clermont St, Denver, Colorado","2200 S Clermont St, Denver, CO 80222, USA",,39.6764948,-104.934984,1,OK,80222
511,"3300 block of Thalia Street, New Orleans, Louisiana","3300 Thalia St, New Orleans, LA 70125, USA",,29.9486848,-90.0907798,1,OK,70125
512,"500 block of Cuesta Del Mar, Oxnard, California","500 Cuesta Del Mar Dr, Oxnard, CA 93033, USA",,34.1486385,-119.1821949,1,OK,93033
513,"White Plains Road near Tom Hunter Road , Charlotte, North Carolina","Tom Hunter Rd & White Plains Rd, Charlotte, NC 28213, USA",,35.276852,-80.788048,1,OK,28213
514,"Oak Ave and 1st St, Trenton, Ohio","Oak Ave & S 1st St, Trenton, OH 45067, USA",,39.4705452,-84.4536478,1,OK,45067
515,"800 block of E Moore St, Tullahoma, Tennessee","800 E Moore St, Tullahoma, TN 37388, USA",,35.3703651,-86.2016384,1,OK,37388
516,"East 181st Street and Arthur Avenue, Bronx, New York","Arthur Ave & E 181st St, The Bronx, NY 10457, USA",,40.8504764,-73.8909514,1,OK,10457
517,"12610 Chenal Parkway, Little Rock, Arkansas","12610 Chenal Pkwy, Little Rock, AR 72211, USA",,34.7559662,-92.4129976,1,OK,72211
518,"1800 South 9th Street, Camden, New Jersey","1800 S 9th St, Camden, NJ 08104, USA",,39.9220502,-75.110504,1,OK,8104
519,"Montana Avenue, Cincinnati, Ohio","Montana Ave, Cincinnati, OH, USA",,39.1509175,-84.588059,1,OK,
520,"3800 block of E Charleston Blvd, Las Vegas, Nevada","3800 E Charleston Blvd, Las Vegas, NV 89104, USA",,36.1587597,-115.0983552,1,OK,89104
521,"2300 Ruskin Avenue, Baltimore, Maryland","2300 Ruskin Ave, Baltimore, MD 21217, USA",,39.3161646,-76.6465441,1,OK,21217
522,"Central Avenue and Apache Street, Phoenix, Arizona","W Apache St & S Central Ave, Phoenix, AZ 85004, USA",,33.430115,-112.0737383,1,OK,85004
523,"5117 Ocala Dr, Middletown, Ohio","5117 Ocala Dr, Middletown, OH 45044, USA",,39.483324,-84.337439,1,OK,45044
524,"800 block of Solano Street, Corning, California","800 Solano St, Corning, CA 96021, USA",,39.9279012,-122.1757255,1,OK,96021
525,"3900 South Lake Park Avenue, Chicago, Illinois","3900 S Lake Park Ave, Chicago, IL 60653, USA",,41.8249633,-87.6038969,1,OK,60653
526,"15625 Lamey Bridge Rd, Biloxi, Mississippi","15625 Lamey Bridge Rd, Biloxi, MS 39532, USA",,30.5125972,-88.932041,1,OK,39532
527,"2600 block of Lasalle Street, Charlotte, North Carolina","2600 Lasalle St, Charlotte, NC 28216, USA",,35.2626067,-80.8591235,1,OK,28216
528,"4600 block of South Winchester, Chicago, Illinois","4600 S Winchester Ave, Chicago, IL 60609, USA",,41.810224,-87.6737392,1,OK,60609
529,"9400 block of West Commercial Boulevard, Fort Lauderdale (Tamarac), Florida","9400 W Commercial Blvd, Fort Lauderdale, FL 33351, USA",,26.1936784,-80.2759797,1,OK,33351
530,"5800 block of South Shields, Chicago (Englewood), Illinois","5800 S Shields Ave, Chicago, IL 60621, USA",,41.7883042,-87.6340281,1,OK,60621
531,"300 block of Sharpe Street, Mooresville, North Carolina","300 Sharpe St, Mooresville, NC 28115, USA",,35.5769268,-80.8117364,1,OK,28115
532,"2300 Washington Street, Boston, Massachusetts","2300 Washington St, Roxbury, MA 02119, USA",,42.3301441,-71.0838242,1,OK,2119
533,"402 West Walnut Street, Carbondale, Illinois","402 W Walnut St, Carbondale, IL 62901, USA",,37.7251757,-89.2212778,1,OK,62901
534,"300 South 500 West, Lebanon, Indiana","300 S 500 W, Lebanon, IN 46052, USA",,40.0353059,-86.5641436,1,OK,46052
535,"145 Hill Carter Pkwy, Ashland, Virginia","145 Hill Carter Pkwy, Ashland, VA 23005, USA",,37.7551473,-77.4597818,1,OK,23005
536,"100 block of DaFoste Avenue, San Antonio, Texas","100 Da Foste Ave, San Antonio, TX 78220, USA",,29.4172327,-98.4318451,1,OK,78220
537,"Raymond Ave, Pasadena, California","N Raymond Ave, Pasadena, CA, USA",,34.1725182,-118.1491287,1,OK,
538,"125 Ohio St, Bangor, Maine","125 Ohio St, Bangor, ME 04401, USA",,44.8040895,-68.7793619,1,OK,4401
539,"10300 Block of Alden Rd, Jacksonville, Florida","10300 Alden Rd, Jacksonville, FL 32246, USA",,30.3011092,-81.5253101,1,OK,32246
540,"8040 Roswell Road, Atlanta (Sandy Springs), Georgia","8040 Roswell Rd, Atlanta, GA 30350, USA",,33.974892,-84.3554372,1,OK,30350
541,"Peters and Flint River roads, Columbiaville, Michigan","Flint River Rd, Michigan, USA",,43.1256641,-83.3670028,1,OK,
542,"24263 Beckendorff Rd, Katy, Texas","24263 Beckendorff Rd, Katy, TX 77493, USA",,29.8588181,-95.8089093,1,OK,77493
543,"2005 12th Ave, Ardmore, Oklahoma","2005 12th Ave NW, Ardmore, OK 73401, USA",,34.1881837,-97.1550379,1,OK,73401
544,"1301 Linn St, Cincinnati, Ohio","1301 Linn St, Cincinnati, OH 45203, USA",,39.1086587,-84.5282192,1,OK,45203
545,"5300 block of South Hermitage Avenue, Chicago, Illinois","5300 S Hermitage Ave, Chicago, IL 60609, USA",,41.7971405,-87.6686699,1,OK,60609
546,"700 Block of Francis Ct, Spring Lake, North Carolina","700 Francis Ct, Spring Lake, NC 28390, USA",,35.1762722,-78.9950424,1,OK,28390
547,"3300 block of Mona Street, Muskegon (Muskegon Heights), Michigan","3300 Mona St, Muskegon Heights, MI 49444, USA",,43.1933866,-86.254309,1,OK,49444
548,"1900 block of McHenry Street, Hopkinsville, Kentucky","1900 McHenry St, Hopkinsville, KY 42240, USA",,36.8532372,-87.4825707,1,OK,42240
549,"200 block of 7th Avenue Northwest, Decatur, Alabama","200 7th Ave NW, Decatur, AL 35601, USA",,34.6057142,-86.9964205,1,OK,35601
550,"3900 block of Lexington Ave, Saint Louis, Missouri","3900B Lexington Ave, St. Louis, MO 63107, USA",,38.6622651,-90.2240263,1,OK,63107
551,"1100 Bob Smith Road, Baytown, Texas","1100 Bob Smith Rd, Baytown, TX 77521, USA",,29.7561199,-94.9501474,1,OK,77521
552,"33 Paradis Loop, Fort Kent, Maine","33 Paradis Cir, Fort Kent, ME 04743, USA",,47.2338001,-68.5879368,1,OK,4743
553,"17801 International Blvd, Seattle, Washington","17801 International Blvd, SeaTac, WA 98188, USA",,47.443558,-122.3000149,1,OK,98188
554,"47 McKnight St, Springfield, Massachusetts","47 Mcknight St, Springfield, MA 01109, USA",,42.1144397,-72.5654244,1,OK,1109
555,"West Fordham Road and Sedgwick, Bronx, New York","Sedgwick Ave & W Fordham Rd, The Bronx, NY 10468, USA",,40.8626938,-73.9090204,1,OK,10468
556,"9860 West Rd, Harrison, Ohio","9860 West Rd, Harrison, OH 45030, USA",,39.2559035,-84.7696394,1,OK,45030
557,"27 Oxford Dr, Carpentersville, Illinois","27 Oxford Dr, Carpentersville, IL 60110, USA",,42.138049,-88.2735117,1,OK,60110
558,"1345 Western Ave N, Saint Paul, Minnesota","1345 Western Ave N, St Paul, MN 55117, USA",,44.9817601,-93.1164207,1,OK,55117
559,"2477 E. Dublin-Granville Rd., Cleveland, Ohio","2477 E Dublin Granville Rd, Columbus, OH 43229, USA",,40.0837867,-82.9525293,1,OK,43229
560,"996 S Parker Dr, Florence, South Carolina","996 S Parker Dr, Florence, SC 29501, USA",,34.1741033,-79.8211737,1,OK,29501
561,"Highway 48 West, Tylertown, Mississippi","MS-48 E, Tylertown, MS, USA",,31.1159258,-90.1420203,1,OK,
562,"1102 Worcester St, Springfield, Massachusetts","1102 Worcester St, Indian Orchard, MA 01151, USA",,42.1592195,-72.5077498,1,OK,1151
563,"4700 block of Richmond Avenue, Kansas City, Kansas","4700 Richmond Ave, Kansas City, MO 64129, USA",,39.0384828,-94.4972937,1,OK,64129
564,"S Randolph St and Grayland Ave, Richmond, Virginia","S Randolph St & Grayland Ave, Richmond, VA 23220, USA",,37.5437396,-77.4594408,1,OK,23220
565,"1960 Greenleaf Drive, Lexington, Kentucky","1960 Greenleaf Dr, Lexington, KY 40505, USA",,38.0602676,-84.4419842,1,OK,40505
566,"1003 Pearman Dairy Rd, Anderson, South Carolina","1003 Pearman Dairy Rd, Anderson, SC 29625, USA",,34.5208747,-82.6927449,1,OK,29625
567,"100 block of Letchworth Avenue, Columbus, Ohio","100 Letchworth Ave, Columbus, OH 43204, USA",,39.9520614,-83.0890946,1,OK,43204
568,"2851 South Madison Avenue, Indianapolis, Indiana","2851 Madison Ave, Indianapolis, IN 46225, USA",,39.7247606,-86.1509693,1,OK,46225
569,"505 S. Billings Boulevard, Billings, Montana","505 S Billings Blvd, Billings, MT 59101, USA",,45.7603094,-108.5353807,1,OK,59101
570,"Highway 126 near Keith Road, Sullivan County, Tennessee","TN-126, Tennessee, USA",,36.5283916,-82.3338918,2,OK,
571,"327 Brookwood Way, Mansfield, Ohio","327 N Brookwood Way, Mansfield, OH 44906, USA",,40.766083,-82.564302,1,OK,44906
572,"7 Neponset St, Worcester, Massachusetts","7 Neponset St, Worcester, MA 01606, USA",,42.2966933,-71.8009839,1,OK,1606
573,"1318 Edgefield Hwy, Aiken, South Carolina","1318 Edgefield Hwy, Aiken, SC 29801, USA",,33.5972241,-81.7249118,1,OK,29801
574,"102nd Street and Michigan Avenue, Chicago, Illinois","E 102nd St & S Michigan Ave, Chicago, IL 60628, USA",,41.7090457,-87.6199175,1,OK,60628
575,"516 Cape Meadows Circle, Cape Girardeau, Missouri","516 Cape Meadows Cir, Cape Girardeau, MO 63701, USA",,37.3271377,-89.5150713,1,OK,63701
576,"3400 block of 13th Place, Southeast, Washington, District of Columbia","3400 13th Pl SE, Washington, DC 20032, USA",,38.842104,-76.9874637,1,OK,20032
577,"Burg Jones Lane and Deloach St. , Monroe, Louisiana","Deloach St & Burg Jones Ln, Monroe, LA 71202, USA",,32.4747983,-92.0889218,1,OK,71202
578,"7792 N.E. 142nd Ave, Vancouver, Washington","7792 NE 142nd Ave, Vancouver, WA 98682, USA",,45.6790379,-122.5273912,1,OK,98682
579,"26 May Street, New Haven, Connecticut","26 May St, New Haven, CT 06511, USA",,41.3196265,-72.8997414,1,OK,6511
580,"Donaghey Ave and Independence Ave, Conway, Arkansas","Donaghey Avenue & Independence Avenue, Conway, AR 72034, USA",,35.0982977,-92.4534641,1,OK,72034
581,"224 Florence-Byram Road , Rankin County, Mississippi","224 Florence-Byram Rd, Florence, MS 39073, USA",,32.1658571,-90.1637179,1,OK,39073
582,"3000 block of West Street, Oakland, California","3000 West St, Oakland, CA 94608, USA",,37.8200832,-122.2735429,1,OK,94608
583,"1300 block of Trieste Drive, San Diego, California","1300 Trieste Dr, San Diego, CA 92107, USA",,32.7305925,-117.2478548,1,OK,92107
584,"52000 block of Avenida Obregon, La Quinta, California","52000 Avenida Obregon, La Quinta, CA 92253, USA",,33.6707145,-116.3132168,1,OK,92253
585,"1500 block of Tanner St SE, Washington, District of Columbia","1500 Tanner St SE, Washington, DC 20020, USA",,38.8473576,-76.982453,1,OK,20020
586,"Englewood Avenue, Boston, Massachusetts","Englewood Ave, Boston, MA, USA",,42.3378943,-71.1488143,1,OK,
587,"400 block of W. Trail St, Jackson, Michigan","400 W Trail St, Jackson, MI 49201, USA",,42.2528974,-84.415042,1,OK,49201
588,"2300 Gregson Lane, Anaconda, Montana","2300 Gregson Ln, Anaconda, MT 59711, USA",,46.0318445,-112.7665866,1,OK,59711
589,"109 Tredeau Street, Hartford, Connecticut","109 Tredeau St, Hartford, CT 06114, USA",,41.728613,-72.6790722,1,OK,6114
590,"Reed Blvd and Curran Blvd, New Orleans, Louisiana","10151 Curran Blvd, New Orleans, LA 70127, USA",,30.0476547,-89.9809101,2,OK,70127
591,"Riviera Ave S and 17th St S, Lakeland (Lake Saint Croix Beach), Minnesota","Riviera Ave S & 17th St S, Lake St Croix Beach, MN 55043, USA",,44.924139,-92.764774,1,OK,55043
592,"26800 block of Lawrence Ct, Hemet, California","Lawrence Ct, Hemet, CA 92545, USA",,33.7308445,-117.0480433,1,OK,92545
593,"Vernon Drive, Augusta, Georgia","Vernon Dr, Augusta, GA 30906, USA",,33.4309061,-82.0630113,1,OK,30906
594,"1700 block of Campbellton Road SW, Atlanta, Georgia","1700 Campbellton Rd SW, Atlanta, GA 30311, USA",,33.7115608,-84.443712,1,OK,30311
595,"2803 W Kilbourn Ave, Milwaukee, Wisconsin","2803 W Kilbourn Ave, Milwaukee, WI 53208, USA",,43.0413175,-87.9491799,1,OK,53208
596,"Bank Street, Charlotte, North Carolina","Bank St, Charlotte, NC 28217, USA",,35.2010525,-80.8757932,1,OK,28217
597,"2713 W 2nd St, Duluth, Minnesota","2713 W 2nd St, Duluth, MN 55806, USA",,46.7622982,-92.1346333,1,OK,55806
598,"998 Riverwalk Parkway, Rock Hill, South Carolina","998 Riverwalk Parkway, Rock Hill, SC 29730, USA",,34.9770414,-80.9777394,1,OK,29730
599,"11800 block of South Indiana, Chicago, Illinois","11800 S Indiana Ave, Chicago, IL 60628, USA",,41.6798584,-87.6179048,1,OK,60628
600,"200 block of Hart Street, Brooklyn, New York","200 Hart St, Brooklyn, NY 11206, USA",,40.6935473,-73.9437202,1,OK,11206
601,"5002 Elm St, McHenry, Illinois","5002 W Elm St, McHenry, IL 60050, USA",,42.3497301,-88.2948815,1,OK,60050
602,"100 block of NW Front St, Milford, Delaware","100 NW Front St, Milford, DE 19963, USA",,38.9144213,-75.4293357,1,OK,19963
603,"4400 block of West Market Street, Louisville, Kentucky","4400 W Market St, Louisville, KY 40212, USA",,38.263624,-85.821112,1,OK,40212
604,"400 block of S Overland Trl, Fort Collins, Colorado","400 S Overland Trail, Fort Collins, CO 80521, USA",,40.5837755,-105.1327253,1,OK,80521
605,"3700 block of 6th St N, Minneapolis, Minnesota","3700 N 6th St, Minneapolis, MN 55412, USA",,45.0222445,-93.2862781,1,OK,55412
606,"1724 Potters Road, Virginia Beach, Virginia","1724 Potters Rd, Virginia Beach, VA 23454, USA",,36.8368984,-76.0235409,1,OK,23454
607,"4170 University Drive, Huntsville, Alabama","4170 University Dr, Huntsville, AL 35816, USA",,34.735554,-86.6314609,1,OK,35816
608,"33rd Avenue and 23rd Street, Columbus, Nebraska","23rd St & 33rd Ave, Columbus, NE 68601, USA",,41.4386562,-97.3683202,1,OK,68601
609,"200 N. 200 E., Jerome, Idaho","200 N 200 E, Jerome, ID 83338, USA",,42.7530368,-114.4825604,1,OK,83338
610,"819 Chestnut, Quincy, Illinois","819 Chestnut St, Quincy, IL 62301, USA",,39.9432423,-91.402392,1,OK,62301
611,"5401 N Martin L King Blvd., Lubbock, Texas","5401 N Martin L King Blvd, Lubbock, TX 79403, USA",,33.6565685,-101.8222599,1,OK,79403
612,"2784 North Monroe Street, Monroe, Michigan","2784 N Monroe St, Monroe, MI 48162, USA",,41.9548653,-83.3789598,1,OK,48162
613,"Mary Catherine Street and Nash Avenue, Ypsilanti, Michigan","Mary Catherine St & Nash Ave, Ypsilanti Charter Twp, MI 48198, USA",,42.2279241,-83.5662616,1,OK,48198
614,"7200 block of Sheriff Road, Hyattsville (Landover), Maryland","7200 Sheriff Rd, Hyattsville, MD 20785, USA",,38.9128766,-76.883547,1,OK,20785
615,"12500 W Markham St, Little Rock, Arkansas","12500 W Markham St, Little Rock, AR 72211, USA",,34.7545617,-92.4121426,1,OK,72211
616,"300 Block of N Pendell St, Cleburne, Texas","300 N Pendell Ave, Cleburne, TX 76033, USA",,32.3456972,-97.3999322,1,OK,76033
617,"Jenkins Rd and Spring House Rd, Vernon, New York","Jenkins Rd & Spring House Rd, New York 13440, USA",,43.127315,-75.486339,1,OK,13440
618,"Wright Avenue and St. Augustine Road , Jacksonville, Florida","Wright Ave & St Augustine Rd, Jacksonville, FL 32207, USA",,30.2787538,-81.6436658,1,OK,32207
619,"5401 Avenue Q, Lubbock, Texas","5401 Avenue Q, Lubbock, TX 79412, USA",,33.5446603,-101.8509502,1,OK,79412
620,"31st Street and College Ave, Indianapolis, Indiana","E 31st St & N College Ave, Indianapolis, IN 46205, USA",,39.8121597,-86.1449603,1,OK,46205
621,"4100 block of Teton St, Marrero, Louisiana","4100 Teton St, Marrero, LA 70072, USA",,29.8442543,-90.1041973,1,OK,70072
622,"500 block of Claiborne St, Goldsboro, North Carolina","500 S Claiborne St, Goldsboro, NC 27530, USA",,35.3699433,-77.9702869,1,OK,27530
623,"Kulani Rd and Volcano Rd, Mountain View, Hawaii","Volcano Rd & N Kulani Rd, Mountain View, HI 96771, USA",,19.5584174,-155.0988372,1,OK,96771
624,"2000 block of N. 39th Street, Milwaukee, Wisconsin","2000 N 39th St, Milwaukee, WI 53208, USA",,43.0564624,-87.9623428,1,OK,53208
625,"300 Grizwold Ave, San Fernando, California","San Fernando, CA, USA",,34.2819461,-118.4389719,1,OK,
626,"2409 South Maybelle Avenue, Tulsa, Oklahoma","2409 S Maybelle Ave, Tulsa, OK 74107, USA",,36.127741,-96.000632,1,OK,74107
627,"N 29th St and W Vliet St, Milwaukee, Wisconsin","N 29th St & W Vliet St, Milwaukee, WI 53208, USA",,43.0486563,-87.9500187,1,OK,53208
628,"505 South Roop Street, Carson City, Nevada","505 S Roop St, Carson City, NV 89701, USA",,39.1605766,-119.7610029,1,OK,89701
629,"609 Fourth St. SW, Cedar Rapids, Iowa","609 4th St SW, Cedar Rapids, IA 52404, USA",,41.9698297,-91.6744563,1,OK,52404
630,"Aetna and S. 6th Street, Burlington, Iowa","S 6th St & Aetna St, Burlington, IA 52601, USA",,40.8066733,-91.1072817,1,OK,52601
631,"700 block of S Fountain, Wichita, Kansas","700 S Fountain St, Wichita, KS 67218, USA",,37.675583,-97.2885256,1,OK,67218
632,"79th Street and Vincennes Ave, Chicago, Illinois","W 79th St & S Vincennes Ave, Chicago, IL 60620, USA",,41.750783,-87.6342559,1,OK,60620
633,"22600 block of Vine Ct, Rocky River, Ohio","22600 Vine Ct, Rocky River, OH 44116, USA",,41.4506642,-81.870713,1,OK,44116
634,"8600 block of Timber Ridge, San Antonio, Texas","Timber Ridge, San Antonio, TX 78251, USA",,29.4650257,-98.6559333,1,OK,78251
635,"Preston Park Drive, Kingsport, Tennessee","Preston Park Dr, Kingsport, TN 37664, USA",,36.5432567,-82.4808515,1,OK,37664
636,"98th Avenue, Oakland, California","98th Ave, Oakland, CA, USA",,37.7403527,-122.1782485,1,OK,
637,"Lima Road and Fernhill Avenue, Fort Wayne, Indiana","Fernhill Ave & Lima Rd, Fort Wayne, IN 46805, USA",,41.1118763,-85.1441079,1,OK,46805
638,"Highway 41 and Washington Avenue, Evansville, Indiana","1145 Washington Ave, Evansville, IN 47714, USA",,37.9622784,-87.5438911,2,OK,47714
639,"5900 block of Culwells Rd, Lincoln, Nebraska","5900 Culwells Rd, Lincoln, NE 68516, USA",,40.7533523,-96.6200603,1,OK,68516
640,"833 South Travis Street, Amarillo, Texas","833 S Travis St, Amarillo, TX 79101, USA",,35.2065646,-101.8555601,1,OK,79101
641,"364 Hiwood Avenue, Munroe Falls, Ohio","364 Hiwood Ave, Munroe Falls, OH 44262, USA",,41.1485785,-81.4299372,1,OK,44262
642,"1600 North Marshfield Avenue, Chicago, Illinois","1600 N Marshfield Ave, Chicago, IL 60622, USA",,41.910868,-87.669209,1,OK,60622
643,"Edgely Rd And Runway Rd, Levittown, Pennsylvania","Edgely Rd & Runway Rd, Levittown, PA 19055, USA",,40.1373597,-74.8408836,1,OK,19055
644,"Reisterstown Road and Cordelia Avenue, Baltimore, Maryland","Cordelia Ave & Reisterstown Rd, Baltimore, MD 21215, USA",,39.3422388,-76.6781967,1,OK,21215
645,"616 Bud Moulton Road, Crestview, Florida","Bud Moulton Rd, Florida 32536, USA",,30.8134736,-86.5544476,1,OK,32536
646,"100 block of Enchanted Way, Cave Junction, Oregon","100 Enchanted Way, Cave Junction, OR 97523, USA",,42.120417,-123.6260911,1,OK,97523
647,"300 block of Elmwood Dr, Radcliff, Kentucky","300 Elmwood Dr, Radcliff, KY 40160, USA",,37.8427228,-85.9443348,1,OK,40160
648,"500 block of East Veterans Memorial Boulevard, Harker Heights, Texas","500 E Veterans Memorial Blvd, Harker Heights, TX 76548, USA",,31.0872568,-97.6580071,1,OK,76548
649,"200 block of West Hively Avenue, Elkhart, Indiana","200 W Hively Ave, Elkhart, IN 46517, USA",,41.6603413,-85.9677406,1,OK,46517
650,"20 block of Lamar Dr, Saint Louis (Jennings), Missouri","20 Lamar Dr, Jennings, MO 63136, USA",,38.7297913,-90.2599629,1,OK,63136
651,"500 block of Shelbourne Court, Racine, Wisconsin","500 Shelbourne Ct, Racine, WI 53402, USA",,42.771781,-87.7848829,1,OK,53402
652,"514 Belmont Avenue, Springfield, Massachusetts","514 Belmont Ave, Springfield, MA 01108, USA",,42.0861956,-72.5592555,1,OK,1108
653,"Raymond Ave and Montana St, Pasadena, California","N Raymond Ave & E Montana St, Pasadena, CA 91103, USA",,34.180911,-118.1492004,1,OK,91103
654,"1000 block of E Abriendo Ave, Pueblo, Colorado","1000 E Abriendo Ave, Pueblo, CO 81004, USA",,38.249498,-104.6136274,1,OK,81004
655,"2101 S Hurstbourne Pkwy, Louisville, Kentucky","2101 S Hurstbourne Pkwy, Louisville, KY 40220, USA",,38.2158693,-85.5887875,1,OK,40220
656,"6500 block of South 257th East Avenue, Wagoner (county), Oklahoma","6500 S 257th E Ave, Broken Arrow, OK 74014, USA",,36.0702799,-95.691446,1,OK,74014
657,"E 15th St and Ave S, Brooklyn, New York","E 15th St & Avenue S, Brooklyn, NY 11229, USA",,40.6034757,-73.9572744,2,OK,11229
658,"2500 block of Daley St, Las Vegas, Nevada","2500 Daley St, North Las Vegas, NV 89030, USA",,36.204445,-115.113273,1,OK,89030
659,"600 block of Walnut Street, Cincinnati, Ohio","600 Walnut St, Cincinnati, OH 45202, USA",,39.1028992,-84.5113634,1,OK,45202
660,"3200 block of West Douglas Boulevard, Chicago, Illinois","3200 W Douglas Blvd, Chicago, IL 60623, USA",,41.8629732,-87.7055687,1,OK,60623
661,"Oakley Ave and Blaisdell St, Rockford, Illinois","Blaisdell St & Oakley Ave, Rockford, IL 61101, USA",,42.2821529,-89.1148375,1,OK,61101
662,"Beach 38th St and Rockaway Beach Blvd, Far Rockaway, New York","Rockaway Beach Blvd & Beach 38th St, Queens, NY 11691, USA",,40.5945831,-73.770355,1,OK,11691
663,"Central Avenue and Broadway Street, Minot, North Dakota","13 Central Ave E, Minot, ND 58701, USA",,48.2366855,-101.2921374,1,OK,58701
664,"Benwick Dr, Brandon, Mississippi","Benwick Dr, Mississippi 39047, USA",,32.3360839,-90.0089551,1,OK,39047
665,"700 block of Garner Ave, Salinas, California","700 Garner Ave, Salinas, CA 93905, USA",,36.6905146,-121.6198635,1,OK,93905
666,"3200 block of Meadowdale Boulevard, Chesterfield, Virginia","3200 Meadowdale Blvd, Richmond, VA 23234, USA",,37.4374517,-77.455825,1,OK,23234
667,"Padgett Road and Prince Street, Conway, Arkansas","Padgett Rd & Prince St, Cadron Township, AR 72034, USA",,35.0785894,-92.5224122,1,OK,72034
668,"100 block of E Fairmont Ave, Savannah, Georgia","100 E Fairmont Ave, Savannah, GA 31406, USA",,31.9997347,-81.118512,1,OK,31406
669,"First Street, Albany, New York","1st St, Albany, NY, USA",,42.6622835,-73.7619334,1,OK,
670,"4000 block of Howland Street, Philadelphia, Pennsylvania","4000 Howland St, Philadelphia, PA 19124, USA",,40.0078014,-75.1035462,1,OK,19124
671,"6700 block of South Winchester, Chicago (Englewood), Illinois","6700 S Winchester Ave, Chicago, IL 60636, USA",,41.7720619,-87.6725591,3,OK,60636
672,"250 W. 65th Street, Loveland, Colorado","250 W 65th St, Loveland, CO 80538, USA",,40.4569491,-105.0809496,1,OK,80538
673,"Vocke Road, Cumberland (Lavale), Maryland","Vocke Rd, La Vale, MD 21502, USA",,39.6324087,-78.8329188,1,OK,21502
674,"North Hook Road, Pennsville, New Jersey","N Hook Rd, Pennsville Township, NJ 08070, USA",,39.6580737,-75.4904491,1,OK,8070
675,"300 S Avalon, West Memphis, Arkansas","300 S Avalon St, West Memphis, AR 72301, USA",,35.1438917,-90.1933525,1,OK,72301
676,"100 block of Isabella Avenue, Newark, New Jersey","100 Isabella Ave, Newark, NJ 07106, USA",,40.741527,-74.220881,1,OK,7106
677,"Turners Falls Rd, Bernardston, Massachusetts","Turners Falls Rd, Bernardston, MA 01337, USA",,42.66684,-72.5102181,1,OK,1337
678,"4400 Greenholme Dr, Sacramento, California","4400 Greenholme Dr, Sacramento, CA 95842, USA",,38.6691336,-121.3611631,1,OK,95842
679,"2300 block of Raynolds Pl SE, Washington, District of Columbia","2300 Raynolds Pl SE, Washington, DC 20020, USA",,38.8564777,-76.974928,1,OK,20020
680,"4201 Dauphine Street, New Orleans (Bywater), Louisiana","4201 Dauphine St, New Orleans, LA 70117, USA",,29.9621018,-90.0343485,1,OK,70117
681,"Sewall Ln, Farmington, Maine","Sewall Rd, Farmington, ME 04938, USA",,44.7011425,-70.1029382,1,OK,4938
682,"900 block of S Garfield St, Lodi, California","900 S Garfield St, Lodi, CA 95240, USA",,38.1231517,-121.2624801,1,OK,95240
683,"5600 block of Debore Drive, New Orleans, Louisiana","5600 Debore Dr, New Orleans, LA 70126, USA",,30.018418,-90.0351506,1,OK,70126
684,"383 East Leffel Lane, Springfield, Ohio","383 E Leffel Ln, Springfield, OH 45505, USA",,39.8926912,-83.8086816,1,OK,45505
685,"First block of Hillcrest Avenue, Trenton, New Jersey","Hillcrest Ave, Trenton, NJ 08618, USA",,40.24162,-74.78554,1,OK,8618
686,"N. McGown St. , Rayne, Louisiana","N McGown St, Rayne, LA 70578, USA",,30.2394542,-92.2629996,1,OK,70578
687,"1400 block of Cordova Avenue, Akron, Ohio","1400 Cordova Ave, Akron, OH 44320, USA",,41.0712319,-81.5754107,1,OK,44320
688,"11th Street and Acacia Avenue, San Bernardino, California","536 W 11th St, San Bernardino, CA 92410, USA",,34.1197632,-117.2946042,1,OK,92410
689,"East Second Avenue, Tennille, Georgia","E 2nd Ave, Tennille, GA 31089, USA",,32.935544,-82.8054909,1,OK,31089
690,"934 Tenth Street , Beloit, Wisconsin","934 10th St, Beloit, WI 53511, USA",,42.5082847,-89.0494468,1,OK,53511
691,"826 4th St, Humboldt County (county), California","826 4th St, Eureka, CA 95501, USA",,40.8028265,-124.1621737,1,OK,95501
692,"Broad Street, Central Falls, Rhode Island","Broad St, Central Falls, RI, USA",,41.8911698,-71.3873876,1,OK,
693,"Gaskins Road and Patterson Avenue, Henrico (county), Virginia","N Gaskins Rd & Patterson Ave, Tuckahoe, VA 23238, USA",,37.5961323,-77.5945065,1,OK,23238
694,"1501 W. 6th St. and, Austin, Texas","1501 W 6th St, Austin, TX 78703, USA",,30.273799,-97.761746,1,OK,78703
695,"18000 block of Fleming, Detroit, Michigan","18000 Fleming St, Detroit, MI 48234, USA",,42.4259169,-83.0788769,1,OK,48234
696,"1600 block of Burrell Street, Roanoke, Virginia","1600 Burrell St NW, Roanoke, VA 24016, USA",,37.2848758,-79.9421418,1,OK,24016
697,"3700 block of Noblitt Drive, Louisville, Kentucky","3700 Noblitt Dr, Louisville, KY 40218, USA",,38.2094412,-85.6429419,1,OK,40218
698,"Fahrenbrook Court, Madison, Wisconsin","Fahrenbrook Ct, Madison, WI 53715, USA",,43.0687413,-89.4014971,1,OK,53715
699,"Lansing and Albany Street, Utica, New York","Albany St & Lansing St, Utica, NY 13501, USA",,43.093373,-75.21449,1,OK,13501
700,"Sherwood Road, Joshua Tree, California","Sherwood Rd, Joshua Tree, CA 92252, USA",,34.1267435,-116.3443078,1,OK,92252
701,"900 Airline Dr, Kenner, Louisiana","900 Airline Dr, Kenner, LA 70062, USA",,29.9860303,-90.2577609,1,OK,70062
702,"Columbia Square, North Olmsted, Ohio","Columbia Square, North Olmsted, OH 44070, USA",,41.4274513,-81.8990038,1,OK,44070
703,"1618 N Zarzamora St, San Antonio, Texas","1618 N Zarzamora St, San Antonio, TX 78201, USA",,29.4446983,-98.5245374,1,OK,78201
704,"Wall Triana Hwy, Madison, Alabama","Wall Triana Hwy, Madison, AL, USA",,34.7340559,-86.7500764,1,OK,
705,"200 block of North Carrollton Avenue , New Orleans, Louisiana","200 N Carrollton Ave, New Orleans, LA 70119, USA",,29.9752583,-90.09923,1,OK,70119
706,"700 N 20th St, East Saint Louis, Illinois","700 N 20th St, East St Louis, IL 62205, USA",,38.6215746,-90.1309041,1,OK,62205
707,"700 block of N Clewell St, Bethlehem (Fountain Hill), Pennsylvania","700 N Clewell St, Fountain Hill, PA 18015, USA",,40.6044825,-75.3936011,1,OK,18015
708,"2100 block of West Landis Avenue, Vineland, New Jersey","2100 W Landis Ave, Vineland, NJ 08360, USA",,39.4880161,-75.0651078,1,OK,8360
709,"700 block of Grant Avenue, Medford, Oregon","700 Grant Ave, Medford, OR 97501, USA",,42.3165216,-122.878659,1,OK,97501
710,"2139 Plaza Drive, Arnold, Missouri","2139 Plaza Dr, Arnold, MO 63010, USA",,38.4488408,-90.3657606,1,OK,63010
711,"1700 block of 1st Ave, Scottsbluff, Nebraska","1700 1st Ave, Scottsbluff, NE 69361, USA",,41.8632749,-103.6613121,1,OK,69361
712,"13453 Hahlen Church Rd, Nashville, Illinois","13453 Hahlen Church Rd, Nashville, IL 62263, USA",,38.3191078,-89.4556831,1,OK,62263
713,"258 E 4th St, New York (Manhattan), New York","258 E 4th St, New York, NY 10009, USA",,40.7227061,-73.9816724,1,OK,10009
714,"6600 block of Avenue N, Birmingham, Alabama","6600 Avenue N, Birmingham, AL 35228, USA",,33.4703828,-86.8947593,1,OK,35228
715,"5500 Beall Ave, Hammond, Indiana","5500 Beall Ave, Hammond, IN 46320, USA",,41.6132111,-87.5097231,1,OK,46320
716,"600 Terminal Drive, Louisville, Kentucky","600 Terminal Dr, Louisville, KY 40209, USA",,38.1858453,-85.7416476,1,OK,40209
717,"1700 block of Beatrice St, Alexandria, Louisiana","1700 Beatrice St, Alexandria, LA 71301, USA",,31.2860163,-92.4535553,1,OK,71301
718,"315 Ridge Road, Claymont, Delaware","315 Ridge Rd, Claymont, DE 19703, USA",,39.8131642,-75.4428921,1,OK,19703
719,"Centre St and Intervale St, Quincy, Massachusetts","257 Centre St, Quincy, MA 02169, USA",,42.2368579,-71.0143734,1,OK,2169
720,"Saddle Drive, Chandler, Arizona","E Saddle Dr, Chandler, AZ 85225, USA",,33.2978252,-111.8292897,1,OK,85225
721,"11599 Lela Ave NW, Uniontown, Ohio","11599 Lela Ave NW, Uniontown, OH 44685, USA",,40.9559947,-81.3644703,1,OK,44685
722,"Cactus and El Mirage Roads, El Mirage, Arizona","N El Mirage Rd & W Cactus Rd, El Mirage, AZ 85335, USA",,33.5943998,-112.3245929,1,OK,85335
723,"78 Waterman Ave, Coldwater, Michigan","78 Waterman Ave, Coldwater, MI 49036, USA",,41.9459671,-85.006404,1,OK,49036
724,"838 Seven Bridge Rd, East Stroudsburg, Pennsylvania","838 Seven Bridge Rd, East Stroudsburg, PA 18301, USA",,41.0024163,-75.1526683,1,OK,18301
725,"500 block of South 10th Street, Las Vegas, Nevada","500 S 10th St, Las Vegas, NV 89101, USA",,36.1621051,-115.1379976,1,OK,89101
726,"200 block of East Snelling Ave, Appleton, Minnesota","200 E Snelling Ave, Appleton, MN 56208, USA",,45.2009168,-96.0142379,1,OK,56208
727,"5800 W Waveland Ave, Chicago, Illinois","5800 W Waveland Ave, Chicago, IL 60634, USA",,41.9478293,-87.771894,1,OK,60634
728,"800 block of Old Dill Road, Suffolk, Virginia","800 Old Dill Rd, Suffolk, VA 23434, USA",,36.7115579,-76.5840598,1,OK,23434
729,"3000 block of 1st Pl, Vero Beach, Florida","3000 1st Pl, Vero Beach, FL 32968, USA",,27.6043976,-80.4174966,1,OK,32968
730,"3200 block of Colfax Avenue, Pueblo, Colorado","3200 Colfax Ave, Pueblo, CO 81008, USA",,38.3023571,-104.6321285,1,OK,81008
731,"33rd and Wabash, Kansas City, Missouri","E 33rd St & Wabash Ave, Kansas City, MO 64109, USA",,39.0662772,-94.5541678,1,OK,64109
732,"Congress Avenue exit, Boca Raton, Florida","8201 Congress Ave, Boca Raton, FL 33487, USA",,26.4216998,-80.0937912,1,OK,33487
733,"53000 block of Beales Street, Lake Elsinore, California","53000 Beales St, Lake Elsinore, CA 92532, USA",,33.7129428,-117.3029036,1,OK,92532
734,"58 Annunciation Road, Boston, Massachusetts","50-58 Annunciation Rd, Boston, MA 02120, USA",,42.334774,-71.092765,1,OK,2120
735,"9209 Natures Bend Lane, London, Kentucky","Garland Rd, Kentucky 40741, USA",,37.2238781,-83.993114,1,OK,40741
736,"4401 32nd Avenue S., Grand Forks, North Dakota","4401 32nd Ave S, Grand Forks, ND 58201, USA",,47.8893039,-97.0862647,1,OK,58201
737,"3300 block of Woodhollow, Memphis, Tennessee","3300 Woodhollow Dr, Memphis, TN 38118, USA",,35.0583459,-89.9163078,1,OK,38118
738,"1144 Butler St, Easton, Pennsylvania","1144 Butler St, Easton, PA 18042, USA",,40.6856153,-75.2252303,1,OK,18042
739,"2139 Burley Ave, Clermont, Florida","2139 Burley Ave, Clermont, FL 34711, USA",,28.5158125,-81.7178198,1,OK,34711
740,"5731 Old Canton Road, Jackson, Mississippi","5731 Old Canton Rd, Jackson, MS 39211, USA",,32.377416,-90.1233603,1,OK,39211
741,"900 block of S.W. 15th Place, Cape Coral, Florida","900 SW 15th Pl, Cape Coral, FL 33991, USA",,26.6364543,-82.0061101,1,OK,33991
742,"William Street and Barnum Avenue, Bridgeport, Connecticut","William St & Barnum Ave, Bridgeport, CT 06608, USA",,41.1873998,-73.186326,1,OK,6608
743,"Marsh Avenue and Edgewood Avenue, Fort Myers, Florida","Marsh Ave & Edgewood Ave, Fort Myers, FL 33916, USA",,26.6704445,-81.8286243,1,OK,33916
744,"Manon Avenue and Ranker Place, Hayward, California","Ranker Pl & Manon Ave, Hayward, CA 94544, USA",,37.6401202,-122.0734338,1,OK,94544
745,"Atlantic Boulevard, Jacksonville, Florida","Atlantic Blvd, Jacksonville, FL, USA",,30.3240751,-81.5261371,2,OK,
746,"312 New Lots Ave, Brooklyn, New York","312 New Lots Ave, Brooklyn, NY 11207, USA",,40.660825,-73.894817,1,OK,11207
747,"180 Broad Street, Staten Island, New York","180 Broad St, Staten Island, NY 10304, USA",,40.623662,-74.0807271,1,OK,10304
748,"8500 block of Sunnybrae Dr, Sacramento, California","8500 Sunnybrae Dr, Sacramento, CA 95823, USA",,38.4491113,-121.4301428,1,OK,95823
749,"Nagle St and Alabama St S, Houston, Texas","Nagle St & Alabama St, Houston, TX 77004, USA",,29.729195,-95.365422,1,OK,77004
750,"Butler and Hazlewood , Fresno, California","S Hazelwood Blvd & E Butler Ave, Fresno, CA 93702, USA",,36.7286889,-119.7680913,1,OK,93702
751,"6000 block of S Eberhart, Chicago, Illinois","6000 S Eberhart Ave, Chicago, IL 60637, USA",,41.7856275,-87.6133207,1,OK,60637
752,"Kings Park Way and FM 1960 E, Humble, Texas","Kings Park Way & Farm to Market 1960 Road East, Houston, TX 77346, USA",,29.998516,-95.1783515,1,OK,77346
753,"North Parkway, Jackson, Tennessee","North Pkwy, Jackson, TN, USA",,35.6486031,-88.8176188,1,OK,
754,"10300 block of Elwell Avenue, Cleveland, Ohio","10300 Elwell Ave, Cleveland, OH 44104, USA",,41.480497,-81.6137326,1,OK,44104
755,"300 block of N Front St, New Bedford, Massachusetts","300 N Front St, New Bedford, MA 02746, USA",,41.658508,-70.925622,1,OK,2746
756,"Rockland Drive, Bassett, Virginia","Rockland Dr, Bassett, VA 24055, USA",,36.7582105,-79.9929516,1,OK,24055
